__time,/pcl_pose/header/stamp/nanosec,/pcl_pose/header/stamp/sec,/pcl_pose/pose/pose/orientation/w,/pcl_pose/pose/pose/orientation/x,/pcl_pose/pose/pose/orientation/y,/pcl_pose/pose/pose/orientation/z,/pcl_pose/pose/pose/position/x,/pcl_pose/pose/pose/position/y,/pcl_pose/pose/pose/position/z
1730697595.96133,603406080,1728187181,0.999740448,-0.017918378,0.014059366,-0.000557908,-0.019633364,-0.007676099,-0.003462725
1730697595.98502,822331136,1728187183,0.999749935,-0.017484235,0.013927213,-0.000632569,-0.008084252,-0.014908007,-0.005036881
1730697596.01697,923190016,1728187183,0.999749018,-0.017536723,0.01392691,-0.000628289,-0.00895804,-0.014977906,-0.00396726
1730697596.03764,225802496,1728187184,0.999749107,-0.017550848,0.013902928,-0.00061555,-0.009816416,-0.013588037,-0.002990716
1730697596.05671,326596352,1728187184,0.999748914,-0.017560553,0.013903956,-0.000611055,-0.010865866,-0.01293678,-0.002539076
1730697596.08401,528363264,1728187184,0.999745329,-0.017739556,0.013936525,-0.0005792,-0.011596823,-0.01133881,-0.002709259
1730697596.185,831032576,1728187184,0.999751582,-0.017416632,0.013895346,-0.000595076,-0.011132036,-0.009266526,-0.002924364
1730697596.3874,32641536,1728187185,0.999743772,-0.017725725,0.014066132,-0.000571649,-0.012703995,-0.017984459,-0.007152445
1730697596.60336,234371840,1728187185,0.999745471,-0.017645354,0.014045076,-0.000584092,-0.01221151,-0.017593721,-0.00819124
1730697597.09042,738658048,1728187185,0.999746119,-0.017706675,0.013920125,-0.000630777,-0.005367134,-0.012575991,-0.011928822
1730697597.19476,839517184,1728187185,0.999747565,-0.017599911,0.013951841,-0.000639621,-0.007650706,-0.007422672,-0.003375517
1730697597.29344,940399360,1728187185,0.999746067,-0.017719304,0.013908179,-0.000604996,-0.000482422,-0.013313415,-0.008907584
1730697597.80837,444667904,1728187186,0.999746648,-0.01768629,0.013909642,-0.000570115,-0.000761745,-0.012642193,-0.009372246
1730697598.00159,646365696,1728187186,0.999746969,-0.017673571,0.013903137,-0.000580908,-0.00100139,-0.012414778,-0.009806397
1730697598.11181,747225344,1728187186,0.99974629,-0.017689893,0.013930224,-0.000572436,-0.000912165,-0.013702366,-0.010039493
1730697598.20048,848083712,1728187186,0.999748049,-0.017600222,0.01391782,-0.00056763,-0.002144163,-0.01190935,-0.011521431
1730697598.30331,949052928,1728187186,0.999746931,-0.017607044,0.013989624,-0.000579001,-0.003403544,-0.010729164,-0.012051093
1730697598.51687,150646784,1728187187,0.999745009,-0.017682891,0.014033865,-0.000516243,-0.007192608,-0.017147271,-0.006915648
1730697598.61455,251557632,1728187187,0.9997467,-0.017584047,0.01403871,-0.000486334,-0.009392784,-0.014359366,-0.006067491
1730697598.71578,352514048,1728187187,0.999748303,-0.017470808,0.014066084,-0.00051776,-0.009374087,-0.011080896,-0.005901742
1730697598.81758,453258496,1728187187,0.999751589,-0.017286017,0.014062634,-0.000451332,-0.006602405,-0.007300158,-0.00521824
1730697598.91666,554232576,1728187187,0.999742885,-0.018019118,0.013748464,-0.000656593,-0.003257476,-0.015826929,-0.009398233
1730697599.00742,655032064,1728187187,0.999748809,-0.017587085,0.013876633,-0.000659217,-0.008791811,-0.003758796,-0.009216427
1730697599.22381,856692736,1728187187,0.999748072,-0.017604522,0.0139079,-0.000636648,-0.007994425,-0.01352431,-0.007881579
1730697599.4244,58381568,1728187188,0.999747818,-0.017651413,0.013868075,-0.00064959,-0.008251304,-0.003843382,-0.009551531
1730697599.52546,159248896,1728187188,0.99974433,-0.017924876,0.013768432,-0.00064886,-0.006053461,-0.006305016,-0.011844173
1730697599.61726,260093952,1728187188,0.999750359,-0.017435442,0.013960972,-0.00054356,-0.008080717,-0.013619389,-0.011393607
1730697599.72489,361090560,1728187188,0.999745687,-0.017682507,0.013982036,-0.000615682,-0.010117302,-0.005702246,-0.006723854
1730697599.82674,461907456,1728187188,0.999739695,-0.017860307,0.014181356,-0.0006526,-0.01081936,-0.011171969,-0.003610626
1730697599.91832,562669056,1728187188,0.99975492,-0.017349973,0.013740041,-0.000512072,-0.003659255,-0.010070601,-0.009830371
1730697600.01951,663533056,1728187188,0.99974284,-0.018092099,0.013661363,-0.00054684,-0.0066652,-0.014738541,-0.004215642
1730697600.17241,764532992,1728187188,0.999753363,-0.017495926,0.013666069,-0.000588116,-0.00612253,-0.005697447,-0.007141299
1730697600.32026,966123776,1728187188,0.999745195,-0.017731982,0.013959039,-0.000506428,-0.006195091,-0.015267927,-0.005557698
1730697600.74231,369559040,1728187189,0.999744822,-0.017709378,0.014017142,-0.000450406,-0.008527884,-0.013368195,-0.005023403
1730697600.92456,571290368,1728187189,0.999746253,-0.017655228,0.013986102,-0.000352194,-0.00771773,-0.00931584,-0.005089291
1730697601.22861,873835520,1728187189,0.999747654,-0.017594538,0.013962385,-0.000365707,-0.006657686,-0.009295774,-0.005215565
1730697601.4313,75553536,1728187190,0.99974875,-0.017563425,0.013917729,-0.000492025,-0.006682245,-0.008403406,-0.006292932
1730697601.52927,176450304,1728187190,0.999750061,-0.01757332,0.013813045,-0.000404384,-0.006377033,-0.010140716,-0.003620548
1730697601.73218,378133504,1728187190,0.999747535,-0.017694789,0.013841075,-0.000442914,-0.00571454,-0.015083399,-0.00272499
1730697601.83172,479085312,1728187190,0.999749756,-0.017530036,0.013886291,-0.000558472,-0.005036712,-0.007242853,-0.007394392
1730697601.93247,579943680,1728187190,0.999748891,-0.017600354,0.013861416,-0.00050752,-0.001676364,-0.010665397,-0.005174594
1730697602.04243,680706304,1728187190,0.999748794,-0.017597112,0.013871577,-0.000505985,-0.001886163,-0.010737218,-0.004234552
1730697602.2378,882459904,1728187190,0.999745143,-0.017668839,0.014036495,-0.000644224,-0.010642089,-0.014220613,-0.006975512
1730697602.3386,983311872,1728187190,0.999751671,-0.017499186,0.013784468,-0.000566631,-0.005368162,-0.013430467,-0.011312271
1730697602.44254,84148480,1728187191,0.99974369,-0.01774235,0.014050942,-0.000567442,-0.008711975,-0.00736883,-0.00373046
1730697602.5494,185021696,1728187191,0.999743198,-0.017720142,0.014113701,-0.000531292,-0.008294425,-0.010367407,-0.002773897
1730697602.64263,285897216,1728187191,0.999743324,-0.017628562,0.014222414,-0.000486145,-0.008672286,-0.009519289,-0.004333869
1730697602.95341,588606720,1728187191,0.999753981,-0.017498321,0.013616207,-0.00062375,-0.003441783,-0.014279388,-0.010802478
1730697603.05638,689384448,1728187191,0.999746439,-0.017811202,0.013766461,-0.000527706,-0.001326189,-0.016937481,-0.006748854
1730697603.14208,790288128,1728187191,0.999746134,-0.017646977,0.013994411,-0.000631256,-0.005978763,-0.008283513,-0.006517749
1730697603.45682,92731392,1728187192,0.99974553,-0.017648946,0.014035187,-0.000644518,-0.005771615,-0.008179436,-0.007145808
1730697603.56198,193589504,1728187192,0.999746261,-0.017589836,0.014055188,-0.000660964,-0.005287302,-0.008036601,-0.007689465
1730697603.66165,294451712,1728187192,0.999745359,-0.017571823,0.014139679,-0.000710706,-0.004208441,-0.009090246,-0.009930108
1730697603.84975,496186112,1728187192,0.999746849,-0.017567659,0.014041773,-0.000685447,-0.00267418,-0.013741557,-0.011767088
1730697603.94946,597025280,1728187192,0.999749659,-0.017555548,0.013857983,-0.000601835,-0.00099704,-0.016610434,-0.010639682
1730697604.0508,697885696,1728187192,0.999749719,-0.017556895,0.013853086,-0.0005616,-0.005398967,-0.008899914,-0.007647059
1730697604.15139,798782720,1728187192,0.999750099,-0.017496346,0.013903519,-0.000535181,-0.006221883,-0.010294578,-0.00746773
1730697604.46319,101453312,1728187193,0.999750993,-0.017437607,0.013915659,-0.000475814,-0.005689283,-0.010061477,-0.007252475
1730697604.57425,202197248,1728187193,0.999750397,-0.017454621,0.013936514,-0.000482851,-0.005253393,-0.009337046,-0.007031959
1730697604.75681,403902976,1728187193,0.999749324,-0.017511867,0.013941115,-0.000512098,-0.004759131,-0.007318741,-0.006294838
1730697604.85744,504759552,1728187193,0.999748996,-0.01751805,0.013954413,-0.000528627,-0.004112325,-0.00656529,-0.005751086
1730697604.95864,605616128,1728187193,0.999748929,-0.017521991,0.013954788,-0.000554792,-0.003268972,-0.006385703,-0.005346191
1730697605.07469,706473472,1728187193,0.999748355,-0.01757431,0.013929044,-0.000580697,-0.00280925,-0.00552718,-0.005344331
1730697605.18372,807352064,1728187193,0.999748578,-0.017565201,0.013925149,-0.000585389,-0.00314996,-0.005295651,-0.005174373
1730697605.28209,908194816,1728187193,0.999748578,-0.017571744,0.013916606,-0.000576152,-0.002908924,-0.005940272,-0.004793408
1730697605.37342,9082624,1728187194,0.999750084,-0.017514381,0.013881137,-0.000580811,-0.003445661,-0.004564582,-0.004847524
1730697605.47418,109928192,1728187194,0.999749823,-0.017552879,0.013850362,-0.000581044,-0.003569318,-0.011654981,-0.004351655
1730697605.56936,210787328,1728187194,0.999747334,-0.017666988,0.013883502,-0.000612771,-0.005279824,-0.004493447,-0.003956272
1730697605.66549,311628288,1728187194,0.999749786,-0.017521686,0.013891277,-0.000600757,-0.005696473,-0.01017488,-0.004834769
1730697605.87659,513368320,1728187194,0.999747431,-0.0176174,0.013940105,-0.000594842,-0.006162323,-0.010820294,-0.004621845
1730697606.07743,715063552,1728187194,0.999748362,-0.0176564,0.013823644,-0.000613594,-0.004086518,-0.020757414,-0.005494246
1730697606.19615,815940352,1728187194,0.999747662,-0.01768479,0.013838648,-0.00060722,-0.006933821,-0.010918878,-0.006669531
1730697606.55799,118554368,1728187195,0.999747773,-0.017686761,0.013827154,-0.000603229,-0.006822425,-0.010871825,-0.006683924
1730697606.60114,219362304,1728187195,0.999747006,-0.017722281,0.013837565,-0.000586861,-0.007688811,-0.011623706,-0.007206181
1730697606.77632,421248256,1728187195,0.999751075,-0.017513032,0.013807119,-0.000654826,-0.006492003,-0.01486495,-0.008432983
1730697606.87605,522079232,1728187195,0.999755777,-0.017468401,0.013292465,-0.002554498,-0.024909858,-0.030789612,-0.003204725
1730697607.08177,723661312,1728187195,0.999669728,-0.017049506,0.012750664,-0.014392024,-0.024900945,-0.049442474,-0.008500811
1730697607.18281,824514560,1728187195,0.999535632,-0.017400118,0.013039714,-0.021347249,-0.001535911,-0.033817798,-0.008122233
1730697607.28028,925401344,1728187195,0.999521514,-0.017823818,0.01014925,-0.023152625,0.032992549,-0.016516484,-0.003057217
1730697607.37889,26245120,1728187196,0.999481104,-0.017160424,0.010228543,-0.025266393,0.045392003,-0.022153564,0.004328372
1730697607.48138,127103744,1728187196,0.999458435,-0.018445284,0.006888404,-0.026365676,0.065648474,-0.021278689,-0.002069305
1730697607.58951,227954688,1728187196,0.99946899,-0.017648633,0.005432376,-0.026846862,0.092426911,-0.025049875,-0.012721157
1730697607.68467,328829184,1728187196,0.999312582,-0.017979794,0.005940349,-0.031871862,0.068625838,-0.03615211,0.000982296
1730697607.79112,429703168,1728187196,0.998982016,-0.019555682,0.007417233,-0.039968567,0.107266851,-0.030291101,-0.005019967
1730697608.09121,732279808,1728187196,0.997184627,-0.020111991,0.013786351,-0.070910279,0.199026465,-0.021066537,-0.001075266
1730697608.19233,833137408,1728187196,0.996033633,-0.02061846,0.016862529,-0.084897296,0.23424913,-0.019521857,-0.023080558
1730697608.29154,933997824,1728187196,0.99494866,-0.020791057,0.013772777,-0.097237779,0.284210354,-0.024569683,-0.013454874
1730697608.6358,236581120,1728187197,0.98964222,-0.021480817,0.015759735,-0.141061984,0.428077877,-0.044889063,-0.024021935
1730697608.69585,337433344,1728187197,0.987382684,-0.020844677,0.016233524,-0.15613265,0.482419431,-0.046749447,-0.037381969
1730697608.90387,539208192,1728187197,0.982532738,-0.021519727,0.013372154,-0.184357037,0.586434484,-0.068339281,-0.036127526
1730697609.02073,639997696,1728187197,0.980440968,-0.02135169,0.011258101,-0.195327556,0.650465548,-0.102436572,-0.026376704
1730697609.10174,740944896,1728187197,0.97798645,-0.020582047,0.012435879,-0.207278131,0.709289372,-0.110105447,-0.026661294
1730697609.20538,841735168,1728187197,0.974793403,-0.020249606,0.013603482,-0.221771777,0.769849241,-0.12455111,-0.050412856
1730697609.3029,942633216,1728187197,0.971898715,-0.019807929,0.014277403,-0.23412965,0.832966626,-0.139441162,-0.019445103
1730697609.40731,43460352,1728187198,0.965807977,-0.018630319,0.016872374,-0.258037148,0.873558283,-0.123453692,-0.058726389
1730697609.50536,144411392,1728187198,0.959562163,-0.019626994,0.015502294,-0.280383531,0.926001787,-0.144346505,-0.036902972
1730697609.73494,346001664,1728187198,0.941073521,-0.02052807,0.014604339,-0.337262431,1.01746273,-0.177333936,-0.051423322
1730697609.81114,446964480,1728187198,0.930768026,-0.020719717,0.016934185,-0.364629708,1.046129704,-0.227588207,-0.06193519
1730697610.01749,648598272,1728187198,0.909026718,-0.021875573,0.016506795,-0.415835778,1.127098322,-0.29973191,-0.056082815
1730697610.28458,850348032,1728187198,0.883083015,-0.023288698,0.013677882,-0.468438815,1.201844692,-0.373818576,-0.063464992
1730697610.4324,52141312,1728187199,0.855164757,-0.024627345,0.012389968,-0.517622662,1.25703311,-0.45504567,-0.058245175
1730697610.51603,152860416,1728187199,0.841729372,-0.025844029,0.010561756,-0.539177339,1.285968781,-0.49996987,-0.056264941
1730697610.72537,354610944,1728187199,0.813891169,-0.026356459,0.011174652,-0.580311651,1.347450495,-0.604759812,-0.05609519
1730697610.81801,455448576,1728187199,0.798109786,-0.025996616,0.011208377,-0.601846619,1.362089157,-0.671076298,-0.057401787
1730697610.91421,556304896,1728187199,0.784160419,-0.027483836,0.010101615,-0.619866976,1.388165355,-0.725739062,-0.043214124
1730697611.02073,657170176,1728187199,0.770339534,-0.027247681,0.011292277,-0.636951404,1.406444073,-0.78030479,-0.042491443
1730697611.12324,758160896,1728187199,0.753705134,-0.027790016,0.011464074,-0.656524834,1.416078448,-0.830107331,-0.052462865
1730697611.25143,858872832,1728187199,0.738307529,-0.029989327,0.0089243,-0.673738103,1.423391581,-0.873933136,-0.05580486
1730697611.43904,60652032,1728187200,0.699320144,-0.027943758,0.011794978,-0.714164851,1.440392494,-0.976330459,-0.037857715
1730697611.52893,161549824,1728187200,0.67969676,-0.029969272,0.01019831,-0.732809804,1.451910138,-1.037186742,-0.040328484
1730697611.62105,262323712,1728187200,0.663606646,-0.028216869,0.011275544,-0.747464288,1.444795609,-1.097106457,-0.044211756
1730697611.74732,363210496,1728187200,0.641612051,-0.030264373,0.009900862,-0.766368049,1.447013259,-1.15397048,-0.054601479
1730697611.83099,464164352,1728187200,0.620199715,-0.029860415,0.009633153,-0.783816192,1.441645861,-1.196033597,-0.032005347
1730697612.03699,665774592,1728187200,0.581522374,-0.028315651,0.009747187,-0.812978996,1.405616879,-1.288335443,-0.032658428
1730697612.13055,766597888,1728187200,0.563339984,-0.028244421,0.009661861,-0.825685708,1.384976625,-1.340397,-0.037299145
1730697612.26086,867461120,1728187200,0.546502109,-0.028405761,0.008996887,-0.836927428,1.367955089,-1.381525517,-0.031951144
1730697612.32773,968475904,1728187200,0.524938587,-0.027242471,0.009215985,-0.850654126,1.355479479,-1.429512978,-0.026205558
1730697612.61037,170087424,1728187201,-0.476681545,0.028994833,-0.00678407,0.878571561,1.312220454,-1.499296069,-0.023847045
1730697612.68436,270996736,1728187201,-0.454526187,0.029757458,-0.006681026,0.890211093,1.274032116,-1.547483325,-0.038333338
1730697612.75863,371813120,1728187201,-0.434470156,0.029370712,-0.005620787,0.900189673,1.25869143,-1.590573549,-0.02084144
1730697612.83812,472647424,1728187201,-0.409269835,0.028874715,-0.004885113,0.911943278,1.232548356,-1.619380355,-0.037238155
1730697612.94164,573492224,1728187201,-0.384771204,0.032316801,-0.002753453,0.922441963,1.203709126,-1.652160168,-0.03988608
1730697613.03851,674468096,1728187201,-0.360785582,0.032239868,-0.002006635,0.932089228,1.186051607,-1.675725341,-0.020770801
1730697613.1389,775225856,1728187201,-0.338280028,0.032145776,-0.001066267,0.940495688,1.137681007,-1.713312984,-0.020801237
1730697613.25017,876051968,1728187201,-0.317358042,0.030187056,-0.000992002,0.947824687,1.114523172,-1.748161316,-0.01273057
1730697613.34567,976949760,1728187201,-0.290129589,0.028002015,0.000343852,0.956577528,1.082625866,-1.780379772,-0.012664397
1730697613.44461,77806080,1728187202,-0.263128296,0.029243892,0.000768497,0.964317224,1.039237261,-1.801550984,-0.011498372
1730697613.55435,178667520,1728187202,-0.235175542,0.027335053,0.00106134,0.971567886,0.995654523,-1.83762002,0.006212088
1730697613.76205,380482048,1728187202,-0.188035447,0.027946562,0.001446819,0.981763486,0.892325222,-1.851354957,0.017082939
1730697613.85119,481220608,1728187202,-0.165706608,0.032480531,0.003358897,0.985634331,0.805261493,-1.875357866,0.000282506
1730697613.94964,582108160,1728187202,-0.150318672,0.031856591,0.002589817,0.988120816,0.797174692,-1.873140931,0.009169703
1730697614.16518,783795200,1728187202,-0.111022766,0.03006318,0.002738627,0.993359279,0.623669922,-1.910972357,0.012885241
1730697614.45743,86359808,1728187203,-0.0617096,0.027230384,0.004111641,0.99771415,0.460242897,-1.945491195,0.034505486
1730697614.57056,187217664,1728187203,-0.045535245,0.027978436,0.004263448,0.998561749,0.416260213,-1.943654537,0.029614843
1730697614.87635,489826048,1728187203,0.030324209,0.026285975,0.006227562,0.999175015,0.306661636,-1.941245556,0.032280773
1730697615.06674,691507712,1728187203,0.087348387,0.017268602,0.006687621,0.996005694,0.187488809,-1.881767273,0.016026495
1730697615.1588,792381184,1728187203,0.123224279,0.017971089,0.005249627,0.992202241,0.146120697,-1.836897016,0.030159365
1730697615.28891,893254656,1728187203,0.136329552,0.019008266,0.006299355,0.990461132,0.104992688,-1.832314372,0.032824624
1730697615.35347,994222336,1728187203,0.1515982,0.028675137,0.005771736,0.988009291,0.094008997,-1.844931006,0.053350903
1730697615.45985,95089664,1728187204,0.166300814,0.022915457,0.008060339,0.985775806,0.025507269,-1.792226434,0.021000652
1730697615.55293,195801856,1728187204,0.177883841,0.022626857,0.0098822,0.983741685,-0.019305568,-1.813094497,0.052189779
1730697615.97183,599239936,1728187204,0.244633555,0.022795807,0.010375034,0.969292074,-0.202576607,-1.665837646,0.046150938
1730697616.16864,800955904,1728187204,0.287397655,0.022696919,0.01084241,0.957480991,-0.297457606,-1.620288014,0.030281464
1730697616.26306,901822208,1728187204,0.308264063,0.018806485,0.010094779,0.951061352,-0.337596416,-1.587963223,0.038988046
1730697616.3734,2712576,1728187205,0.328312051,0.01795706,0.010034902,0.944345287,-0.370259225,-1.590083957,0.028261634
1730697616.4764,103578112,1728187205,0.346924852,0.014624268,0.012098041,0.93770087,-0.401777059,-1.537218928,0.03975188
1730697616.56747,204483072,1728187205,0.365122501,0.011415336,0.014481857,0.930776831,-0.457849652,-1.513857484,0.021493442
1730697616.97286,607830528,1728187205,0.411360848,0.01356965,0.0158313,0.91123405,-0.581754923,-1.403180242,0.056041252
1730697617.20091,809569792,1728187205,0.429974438,0.008768099,0.021276661,0.902547714,-0.651074111,-1.32296443,0.042975083
1730697617.36812,11278848,1728187206,0.446276825,0.009396189,0.021139568,0.894595914,-0.711266577,-1.259695411,0.046560518
1730697617.48436,112139008,1728187206,0.455433289,0.010750609,0.020832578,0.889961213,-0.721481085,-1.238361359,0.038050685
1730697617.56835,213086464,1728187206,0.465660452,0.010493882,0.020205183,0.884670547,-0.756498635,-1.205851674,0.04830822
1730697617.70805,313879552,1728187206,0.47599858,0.013940353,0.01844081,0.879142145,-0.780976892,-1.165810108,0.053833663
1730697617.88072,515645696,1728187206,0.503750688,0.012548917,0.01774885,0.863575495,-0.823875368,-1.084491491,0.047117162
1730697617.97433,616557568,1728187206,0.517002347,0.0135851,0.015892349,0.855728529,-0.860574007,-1.056151748,0.043173242
1730697618.11843,717413376,1728187206,0.530577676,0.012159011,0.015794778,0.847401867,-0.877083182,-1.01152885,0.051787686
1730697618.21312,818170112,1728187206,0.543691072,0.011705255,0.015334287,0.839063632,-0.907110751,-0.975479364,0.045722723
1730697618.28713,919009792,1728187206,0.554167994,0.012279718,0.013842359,0.832199105,-0.933775306,-0.939923763,0.055732593
1730697618.60311,221571840,1728187207,0.581473762,0.013265237,0.012708531,0.813357658,-0.984338522,-0.82677418,0.043602269
1730697618.79392,423315712,1728187207,0.605514986,0.01850457,0.008987559,0.795567998,-1.00042522,-0.769582272,0.048413005
1730697618.88428,524190720,1728187207,0.620827114,0.012291041,0.012891686,0.783745149,-1.004124522,-0.716669261,0.029454835
1730697619.02549,625060608,1728187207,0.639444581,0.010658,0.012929134,0.768654572,-1.026136637,-0.701129138,0.066664957
1730697619.09267,725901056,1728187207,0.652285325,0.014037049,0.011467688,0.757756743,-1.04557097,-0.64973563,0.048470888
1730697619.19812,826722816,1728187207,0.66647004,0.009883456,0.01352571,0.745343621,-1.026401162,-0.628513813,0.04787387
1730697619.28916,927581952,1728187207,0.683121412,0.009515889,0.012782499,0.730130959,-1.053916454,-0.575905025,0.052393038
1730697619.3953,28440320,1728187208,0.692825826,0.006879012,0.015366915,0.720908426,-1.06585598,-0.535546482,0.045842491
1730697619.49747,129327360,1728187208,0.698977293,0.007468334,0.014203934,0.714963779,-1.116883755,-0.45371753,0.052798588
1730697619.80067,431893248,1728187208,0.69669095,0.007457315,0.013877236,0.717198397,-1.11785543,-0.444847584,0.05392928
1730697619.9986,633594624,1728187208,0.696809689,0.007539188,0.013490814,0.71708955,-1.12160027,-0.431254655,0.049924124
1730697620.08778,734459136,1728187208,0.69605133,0.00815433,0.012667902,0.717833944,-1.129506588,-0.420854181,0.050127484
1730697620.31134,936315136,1728187208,0.687956418,0.008966703,0.011173383,0.725610598,-1.155253887,-0.386556298,0.04684604
1730697620.4988,137889024,1728187209,0.679815345,0.010564277,0.009735628,0.73324263,-1.153916001,-0.332669407,0.050432932
1730697620.68079,238748160,1728187209,0.680565192,0.005545645,0.013776755,0.732537015,-1.189204693,-0.35925743,0.043003
1730697620.80982,440502528,1728187209,0.673395359,0.007460737,0.012570568,0.739137984,-1.159281969,-0.250137419,0.043442033
1730697621.00886,541405184,1728187209,0.667923983,0.008247758,0.012630436,0.744076587,-1.113838315,-0.212314174,0.049149893
1730697621.03625,642184960,1728187209,0.668768284,0.008392579,0.011587831,0.743333199,-1.163316727,-0.177232355,0.04737743
1730697621.20008,843901696,1728187209,0.667708343,0.008518623,0.011524433,0.744285022,-1.164655924,-0.105944954,0.050974417
1730697621.31448,944806144,1728187209,0.667959935,0.007776494,0.012352922,0.74405405,-1.181176782,-0.050353754,0.042384803
1730697621.40314,45623296,1728187210,0.668093589,0.007735874,0.012363723,0.74393433,-1.181684613,0.003978547,0.04366222
1730697621.50401,146516992,1728187210,0.668497303,0.007750252,0.012683206,0.74356595,-1.198083639,0.054082673,0.03999145
1730697621.7187,348246528,1728187210,0.67370184,0.007602571,0.012723385,0.738854598,-1.226429701,0.162728488,0.040110987
1730697621.80822,449060352,1728187210,0.677163855,0.006872006,0.013941797,0.735668072,-1.248625159,0.212136194,0.060744751
1730697621.93459,549933568,1728187210,0.682651283,0.006270972,0.012629771,0.730608203,-1.255396128,0.271648467,0.034781367
1730697622.11438,751631872,1728187210,0.698623646,0.0042768,0.013365071,0.715351655,-1.307740211,0.367586672,0.04425643
1730697622.21448,852501504,1728187210,0.707418952,0.004536303,0.012617183,0.706667268,-1.318183303,0.444134951,0.055063006
1730697622.3174,953498368,1728187210,0.71371756,0.003826372,0.011219219,0.700333315,-1.295364141,0.535118759,0.026242651
1730697622.41404,54224384,1728187211,0.714937185,0.006110512,0.010527585,0.699082725,-1.211157203,0.608263195,0.038804438
1730697622.61938,255962880,1728187211,0.70535869,0.005523039,0.011846995,0.708730021,-1.16089952,0.790009022,0.012238902
1730697622.71357,356823808,1728187211,0.698377812,0.006538145,0.010924889,0.715616053,-1.165199757,0.858441353,0.030916402
1730697622.91543,558507008,1728187211,0.691846433,0.004369384,0.013313894,0.721908671,-1.252055287,0.972134113,0.04358701
1730697623.12319,760361472,1728187211,0.691206643,0.005681125,0.011914672,0.722536565,-1.281318665,1.122444272,0.022033241
1730697623.21923,861230592,1728187211,0.691564781,0.007484228,0.010631272,0.722197423,-1.27630198,1.186374903,0.030011188
1730697623.31781,961957632,1728187211,0.691123126,0.007224102,0.009981277,0.722632028,-1.270225286,1.247694016,0.016022911
1730697623.41814,62798592,1728187212,0.690709293,0.008588744,0.008998762,0.723025507,-1.286131263,1.3249892,0.024172971
1730697623.52057,163662592,1728187212,0.691939892,0.009442481,0.007798745,0.72185122,-1.301219225,1.386516929,0.022772258
1730697623.62631,264521472,1728187212,0.694601848,0.008336753,0.009013968,0.719289602,-1.307095766,1.459194899,0.03601829
1730697623.72809,365410816,1728187212,0.697257603,0.00673853,0.011383659,0.716698566,-1.314301014,1.532183886,0.044028293
1730697623.92431,567179776,1728187212,0.699355196,-0.00103104,0.020329348,0.714484352,-1.310064077,1.689953327,0.046126921
1730697624.02643,667988992,1728187212,0.700909817,0.002944846,0.015517944,0.713074994,-1.299767733,1.722906709,0.016662881
1730697624.12408,768908800,1728187212,0.700120477,0.007353748,0.014131126,0.713846971,-1.314793706,1.799641132,-0.018278005
1730697624.24305,869717760,1728187212,0.701330556,0.014062421,0.006125858,0.712671132,-1.30219245,1.865668535,0.019988392
1730697624.33084,970573568,1728187212,0.703815326,0.01144437,0.010323125,0.710215756,-1.326790214,1.938729167,0.033911046
1730697624.60843,172289792,1728187213,0.70993232,0.001503246,0.019439513,0.703999957,-1.31648767,2.095497131,0.016325643
1730697624.66097,273184768,1728187213,0.714221888,0.002140533,0.018790631,0.699663812,-1.326436639,2.176311016,-0.009691665
1730697624.73006,374110976,1728187213,0.718012013,0.003873836,0.018102695,0.695784467,-1.320346594,2.238942146,0.01653921
1730697625.05244,676568320,1728187213,0.729047418,0.0065354,0.015639355,0.684253301,-1.314835548,2.413146734,0.004633321
1730697625.14715,777400320,1728187213,0.732668927,0.004993877,0.017359933,0.680345465,-1.321092367,2.482412577,0.011022337
1730697625.3405,979136512,1728187213,0.738006118,0.006780817,0.016372024,0.674561313,-1.309533119,2.594648123,0.020488866
1730697625.45335,79994880,1728187214,0.742553213,0.006342401,0.018186227,0.669510078,-1.299784064,2.653697729,0.009824291
1730697625.55543,180842240,1728187214,0.748089655,0.00682843,0.018110341,0.663315371,-1.294167042,2.717456818,-0.006754906
1730697625.75654,382553600,1728187214,0.76007765,0.00694053,0.01803286,0.649544895,-1.281165481,2.802947998,-0.002812419
1730697625.86773,483411712,1728187214,0.767597982,0.00702194,0.018210556,0.640634363,-1.267617345,2.866394043,-0.00674809
1730697625.94561,584290304,1728187214,0.776469578,0.007486195,0.017012468,0.629880527,-1.256144404,2.915584564,-0.007291757
1730697626.15746,786004480,1728187214,0.799358556,0.005460782,0.018016698,0.600559302,-1.242495656,3.023029089,-0.01438957
1730697626.2509,886848256,1728187214,0.810500835,0.004335485,0.018910782,0.585416049,-1.221947074,3.086276531,-0.008062443
1730697626.3522,987707904,1728187214,0.822222018,0.003910259,0.018808045,0.568842613,-1.199311852,3.117362022,-0.009556783
1730697626.55995,189443584,1728187215,0.8453534,0.002410289,0.018971362,0.533865043,-1.142810464,3.206706762,-0.021249935
1730697626.65459,290283520,1728187215,0.857010958,-0.000853949,0.020883911,0.514874109,-1.117151141,3.260131121,-0.027761765
1730697626.76299,391280896,1728187215,0.869976927,0.001358571,0.018553364,0.492741372,-1.087840676,3.291904926,-0.020476352
1730697627.18111,794578944,1728187215,0.886952936,-0.001273975,0.022381307,0.461315474,-0.88429749,3.359366179,-0.041463222
1730697627.42371,996312320,1728187215,0.908177726,0.000567947,0.020844342,0.418065054,-0.346456587,3.976653337,-0.086454183
1730697627.52386,97171712,1728187216,0.953267071,-0.003035375,0.014110377,0.301783995,-0.865981042,3.501924515,-0.027328402
1730697627.56837,198027776,1728187216,0.961086045,-0.004491473,0.014794195,0.275816219,-0.83848983,3.457480669,-0.047199719
1730697627.6705,298913280,1728187216,0.967106294,-0.005062362,0.014071525,0.253932693,-0.805045724,3.486791611,-0.022529921
1730697627.75932,399770624,1728187216,0.970879145,-0.004333275,0.011969574,0.239231387,-0.792621374,3.493527651,-0.046606991
1730697627.86095,500592384,1728187216,0.974685796,-0.004638697,0.013355323,0.223131652,-0.737553298,3.512868881,-0.031796895
1730697627.96975,601470464,1728187216,0.978707422,-0.005168756,0.013885057,0.204724857,-0.699614167,3.505691767,-0.041654862
1730697628.17053,803262464,1728187216,0.986012059,-0.00574078,0.015871466,0.165817285,-0.621159792,3.550018787,-0.035678532
1730697628.26628,904031232,1728187216,0.989064159,-0.006724636,0.019045387,0.146096393,-0.580674589,3.540123701,-0.059218321
1730697628.37439,4901120,1728187217,0.99302253,-0.006954698,0.016850756,0.116507143,-0.557905495,3.538209677,-0.033019055
1730697628.61129,206648320,1728187217,0.998661218,-0.007999589,0.016111907,0.04849909,-0.537796676,3.524124146,-0.05728085
1730697628.66767,307513088,1728187217,0.999643575,-0.009829065,0.018070892,0.017016365,-0.522831619,3.52706027,-0.060821
1730697628.87512,509234432,1728187217,0.999558463,-0.010875945,0.013593116,-0.024078725,-0.476882011,3.559512138,-0.061667193
1730697629.17552,811794688,1728187217,0.997427978,-0.013001919,0.012450106,-0.069378456,-0.405179292,3.579887152,-0.058451232
1730697629.27441,912651520,1728187217,0.996600834,-0.01366441,0.013127347,-0.080172722,-0.387479752,3.588523865,-0.059256826
1730697629.47309,114349312,1728187218,0.99542037,-0.015859899,0.018529311,-0.092430308,-0.352438927,3.595179796,-0.061148021
1730697629.67501,316063488,1728187218,0.995109371,-0.015770263,0.015705132,-0.096239118,-0.302028358,3.601947069,-0.070136875
1730697629.77134,416928512,1728187218,0.995101532,-0.016497715,0.018811345,-0.095639417,-0.283676535,3.615605831,-0.0772544
1730697629.8826,517772032,1728187218,0.995257112,-0.016729162,0.02224532,-0.093212464,-0.238021642,3.64696312,-0.064117618
1730697629.97746,618665472,1728187218,0.995717303,-0.016905764,0.01932788,-0.088812449,-0.217529193,3.633662462,-0.077023022
1730697630.07492,719489792,1728187218,0.996339872,-0.016674394,0.019931498,-0.081434354,-0.197985813,3.647909403,-0.058712102
1730697630.27798,921223424,1728187218,0.998005958,-0.017514326,0.018573917,-0.057726431,-0.160730466,3.677184343,-0.063137613
1730697630.41213,22192896,1728187219,0.998736753,-0.017248105,0.013785808,-0.04513699,-0.142400071,3.687375307,-0.059596546
1730697630.49163,122964480,1728187219,0.999254575,-0.016263104,0.018225881,-0.029893655,-0.129966602,3.652715921,-0.104635499
1730697630.58285,223858176,1728187219,0.999278568,-0.015979309,0.019695163,-0.028267884,-0.156411722,3.59852314,-0.060908068
1730697630.68076,324640768,1728187219,0.999322505,-0.016368758,0.016243622,-0.028683015,-0.149298072,3.610537052,-0.068293713
1730697630.78046,425552128,1728187219,0.999308481,-0.015967314,0.017510051,-0.028652642,-0.15019542,3.597083807,-0.074923173
1730697630.87953,526371840,1728187219,0.999319344,-0.016116117,0.016624831,-0.028718472,-0.151705712,3.602332115,-0.066749953
1730697630.9834,627219712,1728187219,0.99931332,-0.015877891,0.017536381,-0.02851729,-0.153243497,3.605718136,-0.075866871
1730697631.08447,728101376,1728187219,0.99931757,-0.016164406,0.016772013,-0.0286675,-0.148312017,3.5977633,-0.071594454
1730697631.1857,828957184,1728187219,0.999319389,-0.015995375,0.016861951,-0.028645289,-0.149261266,3.59915781,-0.070345603
1730697631.48606,131514624,1728187220,0.99931962,-0.015959452,0.01690804,-0.028630448,-0.14848125,3.598864555,-0.070446104
1730697631.69052,333232128,1728187220,0.999321596,-0.016037796,0.016831378,-0.028563028,-0.14806135,3.607165575,-0.076428942
1730697631.80785,434122752,1728187220,0.999321708,-0.016035302,0.016834987,-0.028557794,-0.148140714,3.605496883,-0.077468328
1730697631.90239,534964736,1728187220,0.999320969,-0.016032664,0.016887697,-0.028554945,-0.14917244,3.605079651,-0.077452518
1730697632.00237,635828480,1728187220,0.999321968,-0.016037977,0.016902596,-0.028507606,-0.149835944,3.603961229,-0.07809037
1730697632.0906,736707840,1728187220,0.999319091,-0.015994501,0.017005028,-0.028571714,-0.151493371,3.606513739,-0.076920666
1730697632.1913,837561600,1728187220,0.999321171,-0.015922322,0.017047438,-0.028514009,-0.150337562,3.604861021,-0.078103155
1730697632.32289,938385152,1728187220,0.999320269,-0.016018537,0.016940796,-0.028555593,-0.150765628,3.600301981,-0.07750199
1730697632.50527,140120320,1728187221,0.999320052,-0.0159907,0.016914639,-0.028593683,-0.151650801,3.605406046,-0.07542263
1730697632.6056,240977408,1728187221,0.99932079,-0.015959343,0.016915304,-0.028585048,-0.15225324,3.603985071,-0.075478993
1730697632.6959,341856512,1728187221,0.999320269,-0.016134506,0.016822248,-0.028559917,-0.147640929,3.596333981,-0.074431457
1730697632.79887,442718464,1728187221,0.999321924,-0.015672999,0.017018542,-0.028642778,-0.149106503,3.6057868,-0.071953028
1730697632.90018,543576064,1728187221,0.999321506,-0.015794212,0.016981813,-0.02861256,-0.149542332,3.603138685,-0.071492724
1730697633.00004,644396544,1728187221,0.999323922,-0.016272082,0.0165456,-0.028516019,-0.145438805,3.600292921,-0.076636851
1730697633.11143,745400320,1728187221,0.999322878,-0.015716478,0.016999404,-0.028596806,-0.151905969,3.60697794,-0.0738388
1730697633.25762,846126592,1728187221,0.999320544,-0.016168293,0.016765526,-0.028564668,-0.145134881,3.600027323,-0.075482279
1730697633.30976,946988544,1728187221,0.999320984,-0.016089254,0.01676985,-0.028591365,-0.145617947,3.600311995,-0.075993814
1730697633.40197,47867648,1728187222,0.999320037,-0.016000644,0.016867728,-0.028616878,-0.14986001,3.608690262,-0.073558092
1730697633.5027,148709632,1728187222,0.999324459,-0.016044471,0.016791301,-0.028482507,-0.146818906,3.599333286,-0.074290566
1730697633.60521,249587456,1728187222,0.999320761,-0.016076994,0.016809924,-0.028582926,-0.148709044,3.609060049,-0.074649096
1730697633.73366,350425600,1728187222,0.9993251,-0.015985427,0.016887419,-0.028436311,-0.146920279,3.599550247,-0.073370345
1730697633.81697,451284480,1728187222,0.999324183,-0.016055075,0.016862189,-0.028444654,-0.145932078,3.599490643,-0.074252456
1730697633.90785,552147712,1728187222,0.999323214,-0.016146234,0.016968573,-0.028363692,-0.143758804,3.600770235,-0.074347273
1730697634.10918,753881856,1728187222,0.999323392,-0.015941822,0.017037913,-0.028431067,-0.146162406,3.608788252,-0.075526714
1730697634.41925,56421632,1728187223,0.999323683,-0.016028041,0.017073589,-0.028350301,-0.145131811,3.607999325,-0.075765073
1730697634.51114,157329408,1728187223,0.999322766,-0.016475849,0.016303779,-0.028579093,-0.14480409,3.605213165,-0.071671233
1730697634.61113,258287104,1728187223,0.999324697,-0.01597001,0.016746804,-0.028542285,-0.14769493,3.605459452,-0.071394503
1730697634.8136,459896320,1728187223,0.999324078,-0.016020204,0.016734288,-0.028542607,-0.147195503,3.605561972,-0.071437806
1730697634.92787,560757504,1728187223,0.999322908,-0.016063569,0.016770696,-0.028538047,-0.147217602,3.604240656,-0.071169429
1730697635.02654,661574656,1728187223,0.999326464,-0.015936088,0.016703554,-0.028524636,-0.14499481,3.605598927,-0.070702948
1730697635.11595,762472704,1728187223,0.999311627,-0.016341308,0.016837452,-0.028735844,-0.145360768,3.602075815,-0.071405888
1730697635.22037,863292672,1728187223,0.999319665,-0.015975307,0.016851431,-0.02865289,-0.1448569,3.602737904,-0.071273826
1730697635.31822,964166912,1728187223,0.999322707,-0.016229929,0.01673218,-0.028473868,-0.144164458,3.604026794,-0.071190208
1730697635.41835,65010432,1728187224,0.999323437,-0.016001364,0.016815777,-0.028528342,-0.145495296,3.606880426,-0.070867069
1730697635.53152,166014208,1728187224,0.999324369,-0.016022442,0.016736684,-0.028530173,-0.142660141,3.600999594,-0.072039984
1730697635.84043,468465408,1728187224,0.999319642,-0.016045477,0.016772389,-0.028661289,-0.145607963,3.609063864,-0.076589055
1730697635.93006,569305600,1728187224,0.999321954,-0.015990453,0.016864049,-0.028557443,-0.146397784,3.599391699,-0.075506426
1730697636.02455,670309888,1728187224,0.999319702,-0.01604772,0.016963987,-0.028545003,-0.145726621,3.600821495,-0.078013986
1730697636.12477,771059200,1728187224,0.999320641,-0.016063284,0.016872841,-0.028557401,-0.146498576,3.601247311,-0.078048751
1730697636.24266,871927552,1728187224,0.99932164,-0.016018251,0.016809779,-0.028584176,-0.148366928,3.604690313,-0.077989273
1730697636.73874,376176640,1728187225,0.999327545,-0.015580157,0.016919103,-0.028555655,-0.146760702,3.599637985,-0.07603693
1730697636.83137,477059328,1728187225,0.999318039,-0.016356144,0.016603128,-0.028641001,-0.149281591,3.608575106,-0.072849043
1730697636.93228,577923584,1728187225,0.999329126,-0.015777894,0.016795157,-0.028465346,-0.143569455,3.601225138,-0.073356055
1730697637.15463,779612416,1728187225,0.999330692,-0.015839954,0.016744469,-0.028406244,-0.142191559,3.604064465,-0.072239965
1730697637.24422,880515584,1728187225,0.99931716,-0.016341518,0.016576106,-0.028694192,-0.148119867,3.608362198,-0.073092267
1730697637.33633,981480448,1728187225,0.999330729,-0.015712338,0.016754262,-0.028468757,-0.144525886,3.599857807,-0.074349694
1730697637.43643,82327552,1728187226,0.999327411,-0.015964649,0.016701218,-0.028477205,-0.144856721,3.60012126,-0.074900068
1730697637.53881,183198976,1728187226,0.999358426,-0.015967352,0.016205193,-0.027661399,-0.152061567,3.61030221,-0.073694542
1730697637.63973,283945728,1728187226,0.999411097,-0.016410119,0.014981599,-0.026147696,-0.164804518,3.609759808,-0.075774737
1730697637.86639,485684480,1728187226,0.999570769,-0.016656178,0.015503432,-0.018451961,-0.162631944,3.605489492,-0.064437054
1730697638.04747,687483136,1728187226,0.999807227,-0.01468121,0.010962687,-0.00705697,-0.121299177,3.615620613,-0.055735856
1730697638.1479,788208896,1728187226,0.99983787,-0.015653441,0.008898663,-0.000079192,-0.127460882,3.621623516,-0.074021325
1730697638.39034,989938944,1728187226,0.999613359,-0.017008153,0.008349331,0.020349892,-0.090362698,3.645525455,-0.085341118
1730697638.6032,191638528,1728187227,0.994744648,-0.013756819,0.012909237,0.100633888,-0.071754567,3.691685677,-0.065964296
1730697638.65668,292527104,1728187227,0.988597744,-0.014866603,0.011622997,0.14939336,-0.036894385,3.718209743,-0.083730944
1730697638.77917,393511168,1728187227,0.98137849,-0.013573396,0.011707558,0.191245754,-0.061315317,3.589514256,-0.08104796
1730697638.88468,494252032,1728187227,0.969670558,-0.01102043,0.013514687,0.243792696,-0.021606628,3.662082672,-0.067093
1730697639.31174,796814080,1728187227,0.941125986,-0.007978389,0.014336791,0.337657623,0.07389757,3.667085409,-0.072476394
1730697639.34197,897692928,1728187227,0.934067059,-0.007076021,0.012848738,0.356796264,0.119493984,3.699928999,-0.071636535
1730697639.36654,998509312,1728187227,0.931289383,-0.007984133,0.013601444,0.363938667,0.157779709,3.749784708,-0.092979513
1730697639.47921,99367936,1728187228,0.928949584,-0.007618438,0.017567368,0.369710719,0.209451929,3.770199537,-0.078665257
1730697639.55928,200226048,1728187228,0.928042286,-0.006467389,0.017835776,0.371991357,0.228116944,3.803013563,-0.078460656
1730697639.95856,603699200,1728187228,0.924726787,-0.000254524,0.007147275,0.380564326,0.343446732,3.913211823,-0.092281133
1730697640.06086,704522496,1728187228,0.924273603,-0.002157797,0.008623656,0.381627106,0.363086671,3.959650993,-0.116916016
1730697640.48655,108091648,1728187229,0.920194913,-0.007487097,0.016096211,0.39105773,0.508715093,4.109912872,-0.092460454
1730697640.56423,208852480,1728187229,0.918548417,-0.007797372,0.016806965,0.394874071,0.541379869,4.125943661,-0.099206381
1730697640.66672,309713664,1728187229,0.917220204,-0.007015555,0.014965053,0.398037574,0.560185492,4.172871113,-0.105218224
1730697640.76578,410575104,1728187229,0.916102472,-0.006815568,0.013819762,0.40064799,0.597094417,4.21343708,-0.095282994
1730697640.86913,511527424,1728187229,0.91449051,-0.007669672,0.015009954,0.404256094,0.625971079,4.243566513,-0.107188754
1730697640.9853,612394496,1728187229,0.912654918,-0.005813443,0.012093243,0.408510639,0.648015201,4.288685322,-0.112482607
1730697641.07352,713149696,1728187229,0.911005107,-0.006602825,0.012507287,0.412152522,0.682412148,4.312677383,-0.100957327
1730697641.27194,914953472,1728187229,0.906429668,-0.005366455,0.010214116,0.422199158,0.725514829,4.405112743,-0.118675247
1730697641.57586,217424128,1728187230,0.895727807,-0.002818917,0.010484543,0.444470255,0.830710292,4.528861046,-0.114745639
1730697641.67644,318292736,1728187230,0.892066817,-0.002336662,0.011925171,0.451740134,0.852986276,4.599902153,-0.142894462
1730697641.80699,419123200,1728187230,0.888115661,-0.002689329,0.013731894,0.459406964,0.896520853,4.621542454,-0.125439182
1730697641.88094,520129280,1728187230,0.885054383,-0.001850629,0.013127715,0.465298824,0.930927873,4.680627823,-0.127330542
1730697642.17857,822622208,1728187230,0.873947822,-0.001490814,0.01328311,0.485835929,1.032365799,4.8452425,-0.139181018
1730697642.38796,24437248,1728187231,0.865176313,-0.000914928,0.013111844,0.501295521,1.096801996,4.977288246,-0.14448005
1730697642.50904,125281280,1728187231,0.8597136,0.000284844,0.011405883,0.510648909,1.120603561,5.038730621,-0.132337168
1730697642.58266,226134272,1728187231,0.852963581,-0.000044992,0.011962062,0.521833344,1.154695868,5.097920895,-0.146413267
1730697642.68845,326974464,1728187231,0.847443558,-0.000194479,0.011654492,0.530757531,1.167577028,5.147420406,-0.142039493
1730697642.79135,427752448,1728187231,0.842115422,-0.000159234,0.010858265,0.539188015,1.198716044,5.192336082,-0.142650127
1730697642.99638,629591296,1728187231,0.832640367,-0.001020258,0.013520166,0.553648066,1.247435689,5.320408344,-0.152533978
1730697643.1131,730428928,1728187231,0.825922448,-0.000493972,0.014871285,0.563587338,1.273531437,5.4029212,-0.151640564
1730697643.19578,831163136,1728187231,0.816254885,-0.00020568,0.01696062,0.577442856,1.302041173,5.486559868,-0.161663055
1730697643.29574,932009216,1728187231,0.806423407,0.000314003,0.017681733,0.591074082,1.322059512,5.548099995,-0.150344148
1730697643.7015,335472896,1728187232,0.794775352,0.004547382,0.013452301,0.606737555,1.336962461,5.58344841,-0.156704009
1730697643.82946,436335360,1728187232,0.754163802,0.009144851,0.01050296,0.656538659,1.377944827,5.842954159,-0.168792173
1730697643.91654,537308672,1728187232,0.749361718,0.010192483,0.010924716,0.661992272,1.388581157,5.924488068,-0.16739659
1730697644.01186,638057984,1728187232,0.742162157,0.007457322,0.014142209,0.670029641,1.389932513,6.034285545,-0.178247645
1730697644.09806,739038208,1728187232,0.733217095,0.005460767,0.0184853,0.67972137,1.41435504,6.117558956,-0.169596255
1730697644.72386,344051200,1728187233,0.693623303,0.002221997,0.020626496,0.720039125,1.430928588,6.63986063,-0.193663016
1730697644.90476,545752064,1728187233,0.695445957,0.004786698,0.018525405,0.718323623,1.395726442,6.76058054,-0.195187777
1730697645.00371,646616576,1728187233,0.700098334,0.00681809,0.01645425,0.713824277,1.394252062,6.80842638,-0.190196946
1730697645.14208,747468800,1728187233,0.706292993,0.007117075,0.017411671,0.707669685,1.387359619,6.876832962,-0.198262766
1730697645.27085,848326400,1728187233,0.713238508,0.011640466,0.014502603,0.700674669,1.461188912,6.957425117,-0.217481703
1730697645.30682,949213184,1728187233,0.710034506,0.013650289,0.011641119,0.703938325,1.408405662,7.060918331,-0.194687128
1730697645.40542,50193152,1728187234,0.709566307,0.011715658,0.013140448,0.704418686,1.405442357,7.150657177,-0.190917
1730697645.50781,150922752,1728187234,0.708153779,0.010170293,0.013441072,0.705857032,1.413887501,7.24225378,-0.193769529
1730697645.60598,251808768,1728187234,0.707346465,0.005117403,0.01621445,0.706662499,1.396683693,7.338125706,-0.176021844
1730697645.70745,352623616,1728187234,0.706729584,0.000466357,0.018261998,0.707247863,1.411162734,7.439221382,-0.187924653
1730697645.91441,554355456,1728187234,0.703579749,0.00012111,0.016475275,0.710425301,1.378572106,7.623416424,-0.202533066
1730697646.00914,655215360,1728187234,0.702255445,0.00007218,0.016346121,0.711737343,1.38769424,7.715110302,-0.213965937
1730697646.11197,756100096,1728187234,0.701602314,0.001394529,0.014709892,0.712415477,1.36389339,7.794784069,-0.22002925
1730697646.21404,856954112,1728187234,0.702059549,0.002908123,0.012634941,0.712000208,1.34198308,7.878383636,-0.216099218
1730697646.42437,58671104,1728187235,0.706775534,0.004352268,0.011346124,0.707333484,1.307300925,8.038381577,-0.199220687
1730697646.62004,260391424,1728187235,0.712355888,0.000233984,0.015949647,0.701637094,1.324818015,8.229558945,-0.21699363
1730697647.02409,663824128,1728187235,0.711001699,0.002924467,0.012074945,0.703080521,1.338016391,8.587020874,-0.24639751
1730697647.14576,764646912,1728187235,0.71150755,0.001551509,0.01330947,0.702550671,1.321369171,8.690207481,-0.234007642
1730697647.22399,865541376,1728187235,0.714698635,0.001995982,0.011686632,0.699332054,1.302688718,8.782879829,-0.231449321
1730697647.32637,966405120,1728187235,0.719134814,0.001173971,0.011880896,0.694767973,1.31236279,8.848887444,-0.248424947
1730697647.42572,67222528,1728187236,0.720250618,0.001617369,0.011357598,0.69361907,1.339431763,8.9394207,-0.240048006
1730697647.66819,268956416,1728187236,0.721159085,0.002506488,0.010508229,0.69268525,1.331768751,9.144217491,-0.24400948
1730697647.72645,369836800,1728187236,0.72505879,0.003101225,0.009903595,0.688608786,1.341517091,9.244321823,-0.245301813
1730697648.03126,571545856,1728187236,0.733997697,0.003366459,0.008745926,0.679087268,1.37201345,9.363811493,-0.238492921
1730697648.85039,479356928,1728187237,0.744365076,0.003060712,0.01420158,0.667614853,1.392890692,10.187306404,-0.267852962
1730697649.04253,681007360,1728187237,0.746770043,0.003550283,0.01440139,0.664916904,1.417559385,10.384108543,-0.2720249
1730697649.13762,781829632,1728187237,0.747735843,0.005248988,0.013838615,0.663831331,1.422928095,10.455049515,-0.280725569
1730697649.24037,882723072,1728187237,0.748501206,0.005401232,0.013384051,0.662976359,1.433017612,10.54486084,-0.269550085
1730697649.34489,983589632,1728187237,0.748370606,0.007138878,0.014070122,0.663093112,1.429219127,10.620293617,-0.290737838
1730697649.65687,286120704,1728187238,0.745471799,-0.003975609,0.021140795,0.666189977,1.451978207,10.916851997,-0.257702917
1730697649.7623,386981120,1728187238,0.744905998,0.003414152,0.016468445,0.666957382,1.437766671,11.001885414,-0.321376979
1730697649.8482,487839744,1728187238,0.743387396,0.006728758,0.009810899,0.668755288,1.45512569,11.054569244,-0.296148032
1730697650.52625,92990976,1728187239,0.747036856,0.003192606,0.012994303,0.664647965,1.518511891,11.672671318,-0.308885485
1730697650.76004,395605760,1728187239,0.766477038,0.001055652,0.014823886,0.642099696,1.558045149,11.92386055,-0.317796141
1730697651.27207,899960320,1728187239,0.803747707,0.000759469,0.013922403,0.594806866,1.639308453,12.270020485,-0.328392178
1730697651.3608,723200,1728187240,0.811992588,0.000739199,0.013670995,0.583507125,1.657205343,12.339356422,-0.320864975
1730697651.46339,101619200,1728187240,0.821147054,-0.000156007,0.014766603,0.570525581,1.663749099,12.388548851,-0.344700903
1730697651.56449,202441984,1728187240,0.829785634,-0.001252107,0.015314234,0.557870668,1.682553291,12.44370079,-0.332249284
1730697651.66236,303305984,1728187240,0.836287514,-0.000272374,0.014621792,0.548096055,1.704357624,12.48615551,-0.338740319
1730697651.79554,404163072,1728187240,0.844101983,-0.000772824,0.014217342,0.53599358,1.732440472,12.545413017,-0.32509163
1730697651.8631,505055232,1728187240,0.851966924,-0.000401356,0.012714368,0.523441045,1.751979709,12.598434448,-0.327014953
1730697652.07979,706777856,1728187240,0.86805206,-0.001736813,0.013636806,0.496282781,1.793106914,12.683229446,-0.329802006
1730697652.27839,908471296,1728187240,0.882172682,-0.003597101,0.014594416,0.470686095,1.84367466,12.756176949,-0.333712786
1730697652.37686,9326848,1728187241,0.888708764,-0.003960595,0.013234346,0.458264018,1.861752629,12.797924042,-0.349319637
1730697652.47741,110186496,1728187241,0.893811532,-0.004498189,0.014752147,0.44817745,1.885662556,12.829720497,-0.342933327
1730697652.8192,412750848,1728187241,0.90847465,-0.006389142,0.015662524,0.417597496,1.955557823,12.922883987,-0.344755411
1730697652.88144,513608704,1728187241,0.912769504,-0.006960108,0.016412455,0.408085802,1.985330701,12.950575829,-0.343841702
1730697652.97566,614467584,1728187241,0.91660303,-0.006323104,0.014040773,0.3995019,2.003578186,12.988422394,-0.342028201
1730697653.08574,715340032,1728187241,0.920643088,-0.006859303,0.015161907,0.390050489,2.033889055,13.004032135,-0.361680388
1730697653.17753,816200704,1728187241,0.925398164,-0.007627396,0.014858849,0.378628098,2.055616617,13.032696724,-0.363225639
1730697653.28916,917040896,1728187241,0.929391718,-0.00746628,0.014908274,0.368718074,2.090338469,13.086322784,-0.367321908
1730697653.56808,118759168,1728187242,0.931580516,-0.007484543,0.015093093,0.363144511,2.112320423,13.224628448,-0.345377028
1730697653.5924,219618048,1728187242,0.932868189,-0.006608574,0.014695842,0.359857344,2.191384077,13.247240067,-0.355882585
1730697653.99328,623208704,1728187242,0.925271332,-0.003304815,0.012316348,0.379091472,2.336000204,13.44326973,-0.363791704
1730697654.26288,824813568,1728187242,0.914792641,-0.00102848,0.010505169,0.403785835,2.40636611,13.535819054,-0.359517694
1730697654.29575,925667328,1728187242,0.907639294,-0.000135959,0.010617296,0.419616658,2.437636852,13.585690498,-0.368154526
1730697654.72708,329207808,1728187243,0.873164619,-0.000084096,0.008283464,0.487354988,2.55471921,13.744600296,-0.365647197
1730697654.79876,429965312,1728187243,0.865755183,-0.003988599,0.011871598,0.500311009,2.584615231,13.796122551,-0.385804474
1730697655.00552,631698944,1728187243,0.857074446,-0.015483516,0.016295143,0.514701923,2.618001461,13.859540939,-0.385106295
1730697655.21107,833427456,1728187243,0.848103423,-0.028845272,0.024925369,0.528457455,2.662700653,13.988563538,-0.41257599
1730697655.30645,934259968,1728187243,0.843340448,-0.029590471,0.022997189,0.53607126,2.694204092,14.037075043,-0.352323174
1730697655.50276,136073728,1728187244,0.827871387,-0.041426934,0.034848453,0.558299516,2.717865944,14.153905869,-0.428412259
1730697655.60901,236861184,1728187244,0.826219494,-0.03386768,0.023024069,0.561857805,2.756433249,14.179035187,-0.430173486
1730697655.71011,337689600,1728187244,0.820973085,-0.027170395,0.008632454,0.570254716,2.748006344,14.257811546,-0.388293505
1730697655.80096,438556160,1728187244,0.811821214,-0.030179264,0.018782987,0.58282304,2.747661829,14.283377647,-0.445026964
1730697656.1101,741221120,1728187244,0.805007709,-0.005439331,0.017825692,0.592971519,2.834834337,14.353246689,-0.473990172
1730697656.2124,841989120,1728187244,0.802452646,0.000518897,0.012996128,0.596574011,2.835122585,14.398474693,-0.425132036
1730697656.30731,942846720,1728187244,0.799208119,-0.001608598,0.014664414,0.600873283,2.83438158,14.451725006,-0.421401799
1730697656.4019,43708160,1728187245,0.79779413,-0.001811116,0.011025769,0.602826392,2.848068714,14.519803047,-0.435441017
1730697656.70598,346244864,1728187245,0.800458815,0.009069372,0.004371283,0.599303155,2.920942545,14.688566208,-0.506669462
1730697656.91987,547985152,1728187245,0.796418209,0.011942498,0.00403755,0.604614862,2.953956366,14.824180603,-0.4423787
1730697657.04468,648917760,1728187245,0.792980734,0.00784835,0.008685912,0.609134225,2.981342793,14.923872948,-0.416716099
1730697657.20934,850548736,1728187245,0.787048143,0.002491286,0.012769567,0.616754392,3.023244381,15.094548225,-0.447280645
1730697657.31913,951428608,1728187245,0.7835105,0.003133437,0.012091564,0.621252979,3.054275274,15.187561035,-0.460590094
1730697657.41097,52284928,1728187246,0.779854988,0.004112441,0.011157825,0.625847232,3.037632942,15.25925827,-0.449139386
1730697657.51059,153179392,1728187246,0.780970416,0.004676351,0.010905709,0.624455249,3.000995398,15.303315163,-0.474454671
1730697657.62531,254107904,1728187246,0.78420248,0.005892749,0.009070112,0.620410715,3.024641275,15.380078316,-0.447805613
1730697657.72397,354967296,1728187246,0.788296968,0.006171604,0.009213418,0.615195001,3.01880002,15.41574192,-0.45087263
1730697657.81702,455698688,1728187246,0.793862764,0.005267295,0.010473783,0.607983955,3.039479494,15.511318207,-0.450162679
1730697657.91621,556590336,1728187246,0.796288915,0.004916259,0.010315969,0.604808583,3.113806486,15.601353645,-0.456710726
1730697658.01387,657437184,1728187246,0.795642564,0.004040157,0.011240696,0.605648595,3.12823844,15.696069717,-0.451127321
1730697658.13238,758272768,1728187246,0.794688793,0.002395862,0.012745377,0.606878552,3.153499603,15.787948608,-0.442885101
1730697658.21899,859130880,1728187246,0.79416979,0.001501685,0.013410534,0.60754606,3.175046682,15.876346588,-0.45827654
1730697658.62647,262564352,1728187247,0.803202611,-0.003805033,0.017556747,0.595435034,3.229399204,16.266305923,-0.462547123
1730697658.72455,363459840,1728187247,0.809575885,-0.004783016,0.018013616,0.586719225,3.26103735,16.338844299,-0.489977181
1730697658.92492,565167104,1728187247,0.816112041,-0.003041201,0.014482233,0.577704164,3.312740564,16.485906601,-0.502420306
1730697659.02716,666144256,1728187247,0.819331791,-0.002711567,0.013765858,0.573147934,3.334799528,16.584682465,-0.486861736
1730697659.53366,170319360,1728187248,0.83281401,-0.002943925,0.015763849,0.553320567,3.485929489,16.983371735,-0.512157679
1730697659.63194,271173120,1728187248,0.83557029,-0.004293628,0.014954666,0.549163142,3.529769421,17.066755295,-0.521322906
1730697659.73443,372039424,1728187248,0.838018056,-0.007146513,0.017358717,0.545319502,3.562060118,17.167419434,-0.504588127
1730697659.93604,573734656,1728187248,0.841408399,-0.007147029,0.017051425,0.540083371,3.619653702,17.288328171,-0.516214669
1730697660.13779,775449088,1728187248,0.842947609,-0.005527214,0.017508936,0.537682195,3.696521759,17.454841614,-0.524819911
1730697660.54151,178912256,1728187249,0.84236644,-0.00794619,0.019525419,0.538492708,3.844409227,17.800970078,-0.539517999
1730697660.74372,380621312,1728187249,0.841182117,-0.015839882,0.02340218,0.540013034,3.928983212,17.988912582,-0.536896348
1730697660.83592,481478144,1728187249,0.840636381,-0.016044288,0.02381579,0.540838063,3.941102505,18.059059143,-0.57427007
1730697660.9401,582338560,1728187249,0.839736351,-0.015294415,0.023270934,0.542279842,3.993298292,18.143196106,-0.556084335
1730697661.0655,683205632,1728187249,0.838324366,-0.015437229,0.024044304,0.544422479,4.016369343,18.244316101,-0.594749868
1730697661.14989,784058624,1728187249,0.836905267,-0.016028067,0.024405434,0.546568446,4.071073532,18.328620911,-0.577615857
1730697661.26106,884915968,1728187249,0.835533526,-0.014948075,0.023786937,0.548720742,4.08616209,18.404907227,-0.601037204
1730697661.34409,985756160,1728187249,0.833870132,-0.012696454,0.021234079,0.551405958,4.126467228,18.496761322,-0.606486976
1730697661.44936,86615808,1728187250,0.832325462,-0.010633179,0.020448319,0.553807836,4.15993309,18.577745438,-0.601207614
1730697661.67819,288358912,1728187250,0.826920948,-0.010355071,0.021406542,0.56181512,4.223806381,18.76546669,-0.610970914
1730697661.84826,490054912,1728187250,0.823465518,-0.011345743,0.021975169,0.566827065,4.289160728,18.951839447,-0.640851319
1730697661.94903,590928128,1728187250,0.824326522,-0.011876347,0.02322962,0.565513158,4.333543777,19.05606842,-0.620807409
1730697662.25696,893554432,1728187250,0.834645601,-0.014574663,0.024011257,0.550070664,4.457509041,19.293148041,-0.639540255
1730697662.38095,994385152,1728187250,0.839780739,-0.013880867,0.022697695,0.542273394,4.485388279,19.373714447,-0.657903969
1730697662.45247,95356928,1728187251,0.845785582,-0.014623383,0.022027494,0.532867385,4.52208519,19.439342499,-0.652654648
1730697662.65662,297062912,1728187251,0.854704755,-0.015035595,0.022046027,0.518428075,4.582633018,19.575006485,-0.668752134
1730697662.78542,397791744,1728187251,0.859389561,-0.01604384,0.022504768,0.510573909,4.619199276,19.658853531,-0.672141671
1730697662.8596,498686720,1728187251,0.861447674,-0.016213321,0.022781957,0.507075958,4.62706995,19.745502472,-0.69589293
1730697662.96489,599518976,1728187251,0.863172809,-0.018269555,0.02365691,0.504023107,4.668672085,19.823822021,-0.68216753
1730697663.05876,700497920,1728187251,0.865194143,-0.01898984,0.023439558,0.50052876,4.715190887,19.902267456,-0.702828944
1730697663.36768,2937088,1728187252,0.868154725,-0.020650808,0.023269776,0.495317498,4.816380024,20.146917343,-0.718995988
1730697663.57371,204689664,1728187252,0.869327988,-0.021264166,0.022974575,0.493243187,4.905653954,20.316335678,-0.724995613
1730697663.66263,305628416,1728187252,0.869616526,-0.020939637,0.021954793,0.492794655,4.949690342,20.395685196,-0.718080759
1730697664.00041,608251136,1728187252,0.869985603,-0.020744186,0.023935219,0.49205877,5.089360237,20.648220062,-0.747210264
1730697664.16979,809886720,1728187252,0.869430057,-0.018784923,0.021445731,0.493232774,5.181161404,20.815263748,-0.725318193
1730697664.26862,910671104,1728187252,0.868506734,-0.015729707,0.018191804,0.495093564,5.206632137,20.888969421,-0.748632491
1730697664.39052,11637760,1728187253,0.867388238,-0.016161066,0.021242551,0.496915678,5.258021832,20.960704803,-0.811771274
1730697664.56944,213278208,1728187253,0.865566259,-0.013377487,0.016787002,0.500334167,5.350012302,21.12820816,-0.746306777
1730697664.6711,314247680,1728187253,0.864719742,-0.01610714,0.018709313,0.501647573,5.368964195,21.228551865,-0.822025001
1730697664.7745,415001344,1728187253,0.862575013,-0.020470091,0.021761176,0.505046319,5.41882515,21.335020065,-0.809557855
1730697665.07731,717573888,1728187253,0.85744362,-0.014344333,0.012100217,0.514235591,5.565398693,21.56917572,-0.767436802
1730697665.17338,818475264,1728187253,0.856489148,-0.011701301,0.007320094,0.515980478,5.581498146,21.660705566,-0.796334743
1730697665.27401,919288064,1728187253,0.853211058,-0.010492566,0.009169211,0.521379598,5.593409538,21.758882523,-0.845526099
1730697665.49055,121009152,1728187254,0.845556453,-0.018442186,0.028806713,0.532789168,5.727117062,21.933423996,-0.828583181
1730697665.65078,221869056,1728187254,0.842657442,-0.019685303,0.02918116,0.537298236,5.757604122,22.046379089,-0.845931649
1730697665.81056,423554304,1728187254,0.838403434,-0.020364356,0.021432685,0.544247754,5.829696178,22.208618164,-0.846516371
1730697665.88951,524562944,1728187254,0.835085939,-0.023289337,0.018773409,0.549305574,5.845354557,22.308637619,-0.857569993
1730697665.98112,625286400,1728187254,0.831948903,-0.028537259,0.019778813,0.553764795,5.901788712,22.370790482,-0.855455101
1730697666.14162,726164480,1728187254,0.829342806,-0.035535477,0.023160255,0.55712778,5.916354179,22.495079041,-0.904801607
1730697666.23815,827124224,1728187254,0.826624199,-0.032537601,0.019481958,0.561474982,5.957721233,22.574323654,-0.855564415
1730697666.48911,129600000,1728187255,0.819523323,-0.027893503,0.013385555,0.572210016,6.037639141,22.816921234,-0.882860363
1730697666.59231,230485760,1728187255,0.819171739,-0.025220763,0.008420503,0.572931614,6.076365948,22.885391235,-0.910001814
1730697666.69147,331316224,1728187255,0.81905583,-0.026547913,0.01160697,0.572981692,6.104893684,22.946350098,-0.933878481
1730697666.79121,432157952,1728187255,0.819405772,-0.028849557,0.016334128,0.572254351,6.13685751,23.047275543,-0.925493658
1730697666.89038,533144832,1728187255,0.819343099,-0.030498915,0.018403935,0.57219577,6.168196201,23.086400986,-0.927976727
1730697667.12556,734755328,1728187255,0.821174409,-0.030574227,0.018771759,0.56954844,6.208669662,23.223331451,-0.93477726
1730697667.19961,835652352,1728187255,0.820559237,-0.030246688,0.019626409,0.570423031,6.220383644,23.293930054,-0.935111284
