__time,/pcl_pose/header/stamp/nanosec,/pcl_pose/header/stamp/sec,/pcl_pose/pose/pose/orientation/w,/pcl_pose/pose/pose/orientation/x,/pcl_pose/pose/pose/orientation/y,/pcl_pose/pose/pose/orientation/z,/pcl_pose/pose/pose/position/x,/pcl_pose/pose/pose/position/y,/pcl_pose/pose/pose/position/z,distance,curvature
1730697782.67361,319150336.0,1728187371.0,0.699584251,-0.014261886,0.000634124,0.714407484,19.518920898,50.050003052,-1.978450179,0.0087437192278075,10.0
1730697787.02549,656084992.0,1728187375.0,0.685384456,-0.014330434,0.001189982,0.728039374,19.539072037,50.108894348,-1.989018559,0.0622434988376839,1.6976307463139204
1730697787.81614,462892288.0,1728187376.0,0.672852942,-0.015983864,0.003480649,0.739595311,19.495578766,50.296066284,-1.98154366,0.192158783947721,0.3264802443770577
1730697790.57558,186072320.0,1728187379.0,0.697867516,-0.016396197,0.00241785,0.716035063,19.411014557,51.304519653,-2.0023911,1.0119927385565812,0.142056874781297
1730697793.46527,111109632.0,1728187382.0,0.690720039,-0.011850299,0.000502159,0.72302498,19.288633347,52.637641907,-2.047428608,1.338727793343782,0.0707201967928623
1730697796.79443,439351808.0,1728187385.0,0.65271336,-0.011059734,0.003393361,0.757516587,19.040756226,54.086593628,-2.117300987,1.4700014139122832,1.4912491195262902
1730697799.32661,960815872.0,1728187387.0,0.652523262,-0.008183696,-0.000214945,0.757724484,18.867139816,55.056144714,-2.12453723,0.9849730789138644,0.1087141823666026
1730697800.92902,574540800.0,1728187389.0,0.632857651,-0.011383757,0.001251512,0.77418342,18.720438004,55.693744659,-2.13715148,0.6542592081951043,0.3507305895283963
1730697805.87003,516615168.0,1728187394.0,0.655245839,-0.011748826,0.003119834,0.755317903,18.307771683,57.665306091,-2.185953379,2.0142859709181247,0.0491719396800069
1730697808.80937,441526016.0,1728187397.0,0.650940353,-0.01136581,0.005535939,0.759023566,18.127168655,58.887527466,-2.242790461,1.2354928341474378,0.1278856288192357
1730697810.11544,752728576.0,1728187398.0,0.631204342,-0.006977597,-0.000494584,0.775584948,17.987756729,59.399707794,-2.248371363,0.5308148203481283,0.8841793726820022
1730697812.12317,770019072.0,1728187400.0,0.670555035,-0.013365875,0.004854178,0.741723501,17.795326233,60.326702118,-2.272183895,0.9467565539878882,0.1418965204488524
1730697814.24065,887908864.0,1728187402.0,0.65794402,-0.01491253,0.007177142,0.752884938,17.685691833,61.263301849,-2.281183958,0.9429945693229812,0.064259648821556
1730697818.38404,23125760.0,1728187407.0,0.675375256,-0.012255544,0.001577813,0.73737069,17.355407715,63.080287933,-2.339096069,1.8467609558501863,0.1719563446862856
1730697819.88835,536023808.0,1728187408.0,0.642116044,-0.008678928,0.000429487,0.766558169,17.254095078,63.739837646,-2.35445857,0.6672856017735375,0.2788277383606256
1730697822.61292,259334144.0,1728187411.0,0.622963374,-0.008933106,0.004454829,0.782187295,17.054281235,65.011390686,-2.388232946,1.2871568301445129,0.7475328860404459
1730697824.73406,377239552.0,1728187413.0,0.653881981,-0.009783992,0.002176429,0.75653015,16.736461639,66.281425476,-2.425216675,1.3091973355502748,0.0940458676207884
1730697828.18188,806496512.0,1728187416.0,0.680212959,-0.01294442,0.001420449,0.732898883,16.38306427,68.248542786,-2.471237659,1.9986095696052757,0.0545823109443917
1730697831.00347,630515712.0,1728187419.0,0.659588344,-0.013779627,0.003039982,0.751494585,16.196187973,69.597099304,-2.507838964,1.3614431433668843,0.148145713489777
1730697832.71147,345111040.0,1728187421.0,0.7132258,-0.01100373,-0.000676107,0.700847609,16.147192001,70.08278656,-2.518417835,0.488152349080735,1.1536639213415685
1730697838.35837,993230848.0,1728187426.0,0.713171318,-0.011299845,-0.000418616,0.700898517,16.141469955,70.097145081,-2.519110203,0.0154566793242692,10.0
1730697841.27209,918251520.0,1728187429.0,0.694613475,-0.011097064,-0.002271634,0.719293908,16.093925476,70.370635986,-2.518157959,0.244844860142738,1.38187544270451
1730697842.09047,724975872.0,1728187430.0,0.707122175,-0.010786964,-0.002738078,0.707003766,16.078647614,70.756996155,-2.530190706,0.3866621176906256,0.1295960271232581
1730697845.27869,851639040.0,1728187433.0,0.689942608,-0.007697506,-0.00194115,0.723820531,15.921777725,72.900222778,-2.572131634,2.1489598692415997,0.0405318499342427
1730697847.42989,70501376.0,1728187436.0,0.652199901,-0.012308869,0.000545355,0.757946903,15.578108788,74.910438538,-2.632265568,2.0393812149794517,0.0492292042378738
1730697849.85218,491150592.0,1728187438.0,0.686379615,-0.012515107,-0.002991725,0.727129573,15.403329849,77.04259491,-2.692822218,2.13930794234449,0.0684240631004347
1730697851.96486,609169408.0,1728187440.0,0.603607337,-0.011083469,0.004318743,0.797193003,15.071481705,79.015602112,-2.72569561,2.0007200228467945,0.0455582592502858
1730697854.40046,29765888.0,1728187443.0,0.628036075,-0.010172795,0.001784066,0.778115722,14.500992775,81.121803284,-2.787161827,2.1820955515711757,0.0734572513050514
1730697856.70888,349521920.0,1728187445.0,0.725604572,-0.011044984,0.001915488,0.688020577,14.090484619,83.087760925,-2.837102175,2.00835912932643,0.1471555008774098
1730697858.01799,660725760.0,1728187446.0,0.704378777,-0.007803651,0.000469928,0.709781251,14.170555115,84.165260315,-2.850635052,1.0804703696909317,0.0963871588835678
1730697860.40312,980446464.0,1728187448.0,0.698583548,-0.007837895,-0.001069047,0.715484714,13.951555252,86.251495361,-2.904392242,2.0976981687441683,0.0461594615218478
1730697862.55638,199375360.0,1728187451.0,0.693274829,-0.009009149,0.002866683,0.720611305,13.889226913,88.289321899,-2.959972382,2.038779492936787,0.1390679529933196
1730697864.7938,418277632.0,1728187453.0,0.720106353,-0.008858952,0.001960626,0.693804401,13.821617126,90.328460693,-2.982884407,2.0402593228543138,0.0582825868063027
1730697866.89194,536404736.0,1728187455.0,0.680694657,-0.012187205,0.004624039,0.732451257,13.751894951,92.378257751,-3.046542645,2.050982486681012,0.0297193692065539
1730697869.10999,755312128.0,1728187457.0,0.699448635,-0.008558295,-0.000180201,0.714631537,13.598963737,94.388343811,-3.102538586,2.0158953159382573,0.0373856322106594
1730697871.57092,175786496.0,1728187460.0,0.715270363,-0.008042101,-0.000382479,0.69880146,13.602398872,96.579940796,-3.124156237,2.191599677133937,0.0289578510337344
1730697873.65118,293824256.0,1728187462.0,0.694795385,-0.009894015,0.006428989,0.719110645,13.492747307,98.641067505,-3.200549841,2.064041369803447,0.0223816151245433
1730697876.18137,815314688.0,1728187464.0,0.693107286,-0.005662352,-0.000265584,0.720812092,13.337382317,100.960395813,-3.24742794,2.3245262055756415,0.0134681542677511
1730697878.3928,34338048.0,1728187467.0,0.699480324,-0.006840978,0.001492746,0.714617568,13.255111694,103.01789856,-3.306851864,2.0591469130009536,0.0250721211304514
1730697880.61084,253127424.0,1728187469.0,0.699191701,-0.010975794,0.003734996,0.714840183,13.130125046,105.080581665,-3.369622707,2.066466368908693,0.0273089327955936
1730697883.13561,774565376.0,1728187471.0,0.709877538,-0.008644756,0.000371878,0.704271984,12.915477753,107.408210754,-3.398913622,2.3375052163259853,0.1840760662754499
1730697885.57515,195207936.0,1728187474.0,0.863007282,-0.015914695,-0.001533365,0.504938387,13.515849113,109.36177063,-3.455852509,2.0437323599300825,0.1881266957465483
1730697887.97647,615883520.0,1728187476.0,0.908610616,-0.017409664,-0.00459146,0.417256027,14.715166092,110.974998474,-3.497060299,2.010190362322584,0.1613743279832881
1730697890.5093,137417472.0,1728187479.0,0.987574351,-0.013833518,-0.007298559,0.156372095,16.313217163,112.149299622,-3.508058071,1.9831163384225243,0.186705531486666
1730697892.81875,457038848.0,1728187481.0,0.99948955,-0.01861634,-0.008433372,0.02455452,18.304401398,112.601417542,-3.520725012,2.041868083715902,0.0963323646709249
1730697895.14046,776782592.0,1728187483.0,0.999395806,-0.021506524,0.004734685,0.026889799,20.517562866,112.762557983,-3.515485764,2.219020037125755,0.0243497274152115
1730697897.45654,96578048.0,1728187486.0,0.999662499,-0.018816456,-0.004546011,-0.017324854,22.594280243,112.784889221,-3.549973011,2.0768374390222215,0.0557980283468632
1730697899.67653,315527424.0,1728187488.0,0.999612599,-0.023967258,-0.00228662,0.013963592,24.663671494,112.853134155,-3.544811487,2.070516244981431,0.0138258720709833
1730697901.89254,534328064.0,1728187490.0,0.999725177,-0.019817282,-0.002567856,0.012257575,26.692815781,112.956123352,-3.561306238,2.031756213762726,0.0128391253595458
1730697904.10957,753371904.0,1728187492.0,0.999454938,-0.020356806,-0.010189154,0.023907683,28.721988678,113.065208435,-3.580285311,2.032102901246018,0.0210510007931124
1730697906.43269,73017856.0,1728187495.0,0.994569952,-0.021009463,0.001489157,0.101916377,30.733959198,113.288879395,-3.588823318,2.0243651033586794,0.1599084521259763
1730697908.95544,594454016.0,1728187497.0,0.960085429,-0.012322631,-0.005089663,0.279389,32.554412842,114.122612,-3.604117393,2.0022890716859463,0.1966004862903466
1730697910.97403,611665920.0,1728187499.0,0.896971095,-0.016140114,0.003077386,0.441783746,33.606571198,115.059020996,-3.64054656,1.4085095008164996,0.3117173145740117
1730697912.4018,23694080.0,1728187501.0,0.800011036,-0.008919111,0.000958451,0.59991821,34.049346924,115.902709961,-3.649222851,0.9528176180138548,0.377313358240184
1730697913.50151,133286144.0,1728187502.0,0.703406187,-0.007604476,-0.002340042,0.71074359,34.049926758,116.629272461,-3.682495594,0.726562731368543,0.2212898011619299
1730697916.22421,856303872.0,1728187504.0,0.710621304,-0.006363439,-0.000351022,0.703545831,33.893745422,118.935272217,-3.700927734,2.311282649177038,0.0414362163770387
1730697918.43318,75231744.0,1728187507.0,0.702906843,-0.00258627,-0.001852639,0.71127483,33.838909149,120.927986145,-3.732563734,1.9934682881053616,0.0451109494900496
1730697920.76219,394950912.0,1728187509.0,0.709161691,-0.014017955,0.005907707,0.704881722,33.730278015,123.101104736,-3.797184467,2.1758320555189714,0.0238541480698355
1730697923.1857,815565568.0,1728187511.0,0.728372979,-0.005583678,0.002448845,0.685153723,33.721549988,125.272544861,-3.882703543,2.171457665927509,0.029560472660085
1730697925.50556,135462656.0,1728187514.0,0.705918681,-0.005094121,-0.003425106,0.708266273,33.701816559,127.351783752,-3.902289152,2.0793325309019286,0.1050494744153862
1730697928.06253,656889856.0,1728187516.0,0.794456482,-0.017874419,-5.135e-05,0.607057982,33.685520172,129.424362183,-3.952887774,2.072642498086841,0.255727896150283
1730697929.33126,967967488.0,1728187517.0,0.899391746,-0.018108404,0.005305171,0.436736101,34.081642151,130.242202759,-4.079179764,0.9087220862281838,0.2471233314419426
1730697931.45946,86012672.0,1728187520.0,0.899806207,-0.005794047,-0.023414055,0.435622589,35.010314941,131.489868164,-4.01638937,1.5553463002560488,0.1721440277082336
1730697933.98561,607504128.0,1728187522.0,0.903757853,-0.016417343,-0.004271853,0.427707821,36.303474426,133.146575928,-4.182254791,2.101652223595371,0.200337770595253
1730697935.79221,422931456.0,1728187524.0,0.761414005,-0.006681035,-0.0056971,0.648206457,36.831474304,134.236221313,-4.078474522,1.2108306802438449,0.2693292906061605
1730697937.1923,835094528.0,1728187525.0,0.708969648,-0.012276518,-0.001562576,0.705130393,36.922077179,135.450149536,-4.114547253,1.2173046502639466,0.8143961776197329
1730697938.61339,246980864.0,1728187527.0,0.813814887,-0.00246978,-0.009243918,0.58104543,36.997875214,136.523803711,-4.163390636,1.0763264512241604,0.2008817074275192
1730697940.83422,465946368.0,1728187529.0,0.888262476,-0.011126033,0.001153193,0.45919998,37.921836853,138.254013062,-4.203924179,1.9614610647758124,0.0528267738667033
1730697943.04291,684841728.0,1728187531.0,0.880084498,-0.014583064,0.00586991,0.474556755,39.001811981,140.004364014,-4.252326488,2.0567145480756177,0.0888368904450876
1730697945.50213,105543936.0,1728187534.0,0.879336536,-0.015348582,0.003987044,0.475936752,40.16696167,141.914337158,-4.321101665,2.23731339078324,0.028912255923441
1730697947.69366,324283136.0,1728187536.0,0.904065212,-0.010365346,0.002119685,0.427263569,41.294124603,143.568984985,-4.341872215,2.002087837464919,0.0637527981391822
1730697949.80128,442323456.0,1728187538.0,0.861181208,-0.013615511,0.002762217,0.508108172,42.422233582,145.047180176,-4.403672695,1.8594867278891825,0.2518191083086569
1730697951.01537,652628992.0,1728187539.0,0.750962459,-0.008910835,0.005730029,0.660259905,42.570041656,145.746017456,-4.421009541,0.7142973965074898,0.3032088982046239
1730697953.93,577574400.0,1728187542.0,0.72126561,-0.003932088,0.008336549,0.692597243,42.622058868,147.515701294,-4.464723587,1.7704481570559003,0.0774353652391373
1730697958.36663,15335168.0,1728187547.0,0.680241621,-0.008928159,0.007017323,0.732899986,42.434696198,149.509628296,-4.502659798,2.0027105780452175,0.1549442057046905
1730697961.49653,141975552.0,1728187550.0,0.580878556,-0.003893075,0.004856477,0.813966435,42.018062592,150.748275757,-4.582412243,1.3068401181056182,0.1115162683096957
1730697965.33346,974656768.0,1728187553.0,0.487670072,-0.009187254,0.008643243,0.872936856,41.177597046,152.562515259,-4.603376865,1.9994617537303272,0.2127481877443233
1730697967.45447,92635904.0,1728187556.0,0.550360336,-0.00919893,0.013912138,0.834760639,40.545928955,153.588150024,-4.651007652,1.2045460756501376,0.0984203623432383
1730697970.67389,320260096.0,1728187559.0,0.51163573,-0.039553251,0.04985081,0.856842618,39.777263641,155.209976196,-4.845562458,1.7947608467790312,0.0899246399152609
1730697972.48508,135617280.0,1728187561.0,0.544201618,-0.024583158,0.024563985,0.838234402,39.338104248,155.965957642,-4.935614586,0.8742819448875551,0.1055370510555595
1730697974.71284,354526208.0,1728187563.0,0.581463748,0.00313256,0.014017797,0.813445522,38.809936523,157.054260254,-4.999406338,1.2096957142263982,0.1922582723806635
1730697975.7272,363103744.0,1728187564.0,0.622755871,-0.007965455,0.020579907,0.78210494,38.717674255,157.648117065,-5.010167599,0.6009810629858376,1.022517733320366
1730697976.72495,371693312.0,1728187565.0,0.595758848,0.012212395,0.001942326,0.803068165,38.564418793,158.125366211,-5.036654949,0.5012524154461039,1.185764746476487
1730697977.73979,380271360.0,1728187566.0,0.592911184,-0.01543301,0.01886619,0.804898848,38.313518524,158.732711792,-5.046823025,0.6571298195520459,0.2433778156815564
1730697979.35271,994129408.0,1728187567.0,0.67337273,-0.024693161,0.023524444,0.738516077,38.194755554,159.559768677,-5.105835438,0.8355403844633182,0.2706828321534074
1730697981.26867,910323200.0,1728187569.0,0.807335003,-0.024051391,0.010455597,0.589510282,38.350997925,160.730377197,-5.176799774,1.180989409602092,0.3138094851962474
1730697983.0882,725767424.0,1728187571.0,0.933909893,-0.020129709,0.000916212,0.356940156,38.845039368,161.848526001,-5.255498886,1.2224294234385011,0.231615361392719
1730697985.40241,45529856.0,1728187574.0,0.950974446,-0.00847859,0.005674426,0.309101149,40.39447403,163.103713989,-5.298509598,1.9940523205338672,0.1922751475076248
1730697987.82344,466165504.0,1728187576.0,0.999878958,-0.01412532,0.005527592,0.003455775,42.288589478,163.714233398,-5.346434593,1.990077204310918,0.1351278886432209
1730697990.07467,685062912.0,1728187578.0,0.999857021,-0.014103683,0.002989112,0.008836084,44.330120087,163.750732422,-5.379318714,2.0418568525332175,0.0683041309822185
1730697992.27199,903930624.0,1728187580.0,0.999880605,-0.013642491,0.006474352,0.003278275,46.405010223,163.787490845,-5.413461208,2.075215713638355,0.0092911385329469
1730697994.48987,122863616.0,1728187583.0,0.99989404,-0.013436399,0.002602216,-0.00495837,48.415485382,163.897491455,-5.455552101,2.0134821824780205,0.0228150441249237
1730697996.80047,442582528.0,1728187585.0,0.999524547,-0.016635325,0.001036033,-0.0259401,50.563678741,163.870330811,-5.471457958,2.1483650546948914,0.0601003959174569
1730697999.01957,661562112.0,1728187587.0,0.999715303,-0.016792143,0.014430202,-0.008891354,52.63974762,163.902770996,-5.551995754,2.0763223150453225,0.0487536819255855
1730698001.33668,981252352.0,1728187589.0,0.999587674,-0.015924497,0.018201563,-0.015478765,54.830966949,163.938598633,-5.637405872,2.1915122101773035,0.0468462011473031
1730698003.45689,99412224.0,1728187592.0,0.999687928,-0.015024459,0.019481339,0.004337052,56.825843811,163.986526489,-5.713546753,1.9954525235955167,0.0222763949932468
1730698005.81396,419171328.0,1728187594.0,0.999614872,-0.014883197,0.019277002,0.013305048,58.950004578,164.104797363,-5.816013336,2.127450813461676,0.020080183528043
1730698008.02381,637962240.0,1728187596.0,0.999556667,-0.014733658,0.018539667,-0.018046175,60.998210907,164.142990112,-5.904214382,2.0485623867072844,0.0819848245229204
1730698010.1102,756002816.0,1728187598.0,0.999657289,-0.013864596,0.020186117,0.009250557,63.026794434,164.156814575,-5.9946208,2.028630632173587,0.0269131298421681
1730698012.43319,75717888.0,1728187601.0,0.999723873,-0.012356013,0.019835236,0.00245899,65.144111633,164.270935059,-6.098249912,2.120390437171788,0.0425693807986295
1730698014.68684,294614016.0,1728187603.0,0.999327553,-0.014118683,0.02209113,0.025633165,67.255722046,164.396743774,-6.218863964,2.115354903806926,0.0118121807344054
1730698016.87847,513514240.0,1728187605.0,0.999513113,-0.015487096,0.021807534,0.016065538,69.25907135,164.529968262,-6.305510044,2.007774190002486,0.0099414620912378
1730698019.19029,833298432.0,1728187607.0,0.999590902,-0.015068054,0.024281208,-0.001172368,71.406417847,164.661346436,-6.43280077,2.1513617089605703,0.0264257392537228
1730698021.31654,951321344.0,1728187609.0,0.999525494,-0.012782294,0.019756791,0.019875434,73.440910339,164.731948853,-6.539012909,2.0357171712422644,0.3017478055068092
1730698023.12948,766799616.0,1728187611.0,0.999630122,-0.013763854,0.023052256,-0.004328649,75.049827576,164.811431885,-6.614488602,1.6108793337465177,0.5615337623979622
1730698025.25354,884843776.0,1728187613.0,0.999173881,-0.013108309,0.023064569,0.030785057,77.082687378,164.922393799,-6.717379093,2.0358859302392265,0.0171712893364391
1730698027.55991,204557824.0,1728187616.0,0.999327866,-0.016499745,0.023563137,0.022722933,79.187416077,165.105865479,-6.830280304,2.112710286280686,0.0169270141562504
1730698029.81725,423453440.0,1728187618.0,0.999573013,-0.019823486,0.01983661,-0.008205008,81.221191406,165.214538574,-6.908275127,2.036676687750407,0.2578525262385029
1730698031.91521,541494784.0,1728187620.0,0.998851847,-0.019096325,0.023723356,0.036979725,83.239242554,165.298370361,-6.994413376,2.0197916240186076,0.0230189772908129
1730698034.42938,62981632.0,1728187623.0,0.999446365,-0.014833123,0.024362074,0.017129573,85.537025452,165.565490723,-7.161308289,2.3132573428255383,0.020254239397447
1730698036.63369,281882112.0,1728187625.0,0.999563032,-0.016200478,0.023818302,0.006629813,87.585762024,165.608978271,-7.273932457,2.0491980646783277,0.0223693081893042
1730698038.75634,399904768.0,1728187627.0,0.999177214,-0.014721878,0.026129426,0.027301652,89.603797913,165.732681274,-7.395084381,2.0218237515281072,0.0409854489142995
1730698040.97169,618836480.0,1728187629.0,0.999367126,-0.013311235,0.025779115,0.020580836,91.669403076,165.846847534,-7.501610279,2.0687577490693907,0.0185263089829833
1730698043.77886,342005760.0,1728187632.0,0.999565462,-0.013803392,0.022702872,-0.01276395,94.143798828,165.957122803,-7.646348,2.4768518269102615,0.0394857622732661
1730698046.55415,166054144.0,1728187635.0,0.999513172,-0.015939115,0.021469923,-0.016074127,96.153289795,165.895462036,-7.745656013,2.0104367676307664,0.1373479231973655
1730698049.34278,990088192.0,1728187637.0,0.997397426,-0.015186718,0.024796042,0.065976533,98.224853516,166.195556641,-7.847791195,2.0931872878730724,0.0327306090192881
1730698051.83102,410702080.0,1728187640.0,0.999365173,-0.01617836,0.021190213,0.023632337,100.377296448,166.464294434,-7.964304447,2.1691543460305613,0.0286359505402668
1730698054.08503,730460160.0,1728187642.0,0.999603364,-0.017103249,0.021777321,0.005132421,102.458862305,166.577835083,-8.088288307,2.0846601392081845,0.0174167919952321
1730698056.35274,949474304.0,1728187644.0,0.99958028,-0.017190264,0.023316742,-0.00034528,104.510063171,166.642410278,-8.1980896,2.0522170812290903,0.0574551306514423
1730698058.82502,470905856.0,1728187647.0,0.99835634,-0.019219241,0.016467565,-0.051420305,106.77419281,166.709197998,-8.312073708,2.265114483142317,0.1716616969681963
1730698060.44137,84570112.0,1728187649.0,0.981039147,-0.024187634,0.018033504,-0.191446975,108.144477844,166.422698975,-8.375603676,1.3999152705018665,0.2226724717611569
1730698062.56857,202606592.0,1728187651.0,0.916320311,-0.045465158,0.003224956,-0.397843696,109.529968262,165.383255005,-8.448591232,1.7320587360534865,0.181938519714949
1730698065.08218,724221952.0,1728187653.0,0.805019556,-0.048273016,0.010786333,-0.591182619,110.768112183,163.698822021,-8.37439537,2.0905298004803345,0.2068658606371385
1730698067.18984,842135808.0,1728187655.0,0.709786876,-0.047073634,0.010738273,-0.702759839,111.163383484,161.759857178,-8.290556908,1.9788441231649028,0.1084508648039942
1730698069.31753,960155136.0,1728187657.0,0.721170222,-0.047008058,0.007887499,-0.691116107,111.220947266,159.742294312,-8.209247589,2.0183838850080633,0.2650556076714563
1730698071.62941,280049920.0,1728187660.0,0.688151804,-0.043827226,0.010080133,-0.72417169,111.276168823,157.70614624,-8.108010292,2.0368967552300816,0.0633150799296325
1730698073.95402,599703296.0,1728187662.0,0.624712088,-0.044665201,0.006475117,-0.779549814,111.152366638,155.693603516,-8.021208763,2.0163469931874745,0.0869599092732018
1730698076.27147,919496704.0,1728187664.0,0.577562516,-0.041885908,0.004412524,-0.815259215,110.589920044,153.675140381,-7.90056181,2.0953614481650176,0.035603291049293
1730698078.59213,239213568.0,1728187667.0,0.581072889,-0.037540125,0.005943314,-0.812963559,109.972801208,151.645782471,-7.77620697,2.121115080476685,0.026343622224519
1730698080.80849,458112256.0,1728187669.0,0.617867825,-0.041207068,0.008886196,-0.78515121,109.427879333,149.715179443,-7.698865414,2.0060328764943516,0.0508550160876764
1730698083.83336,483877632.0,1728187672.0,0.653218959,-0.040155317,0.0097084,-0.75604119,109.065895081,147.555130005,-7.604198933,2.1901703525753864,0.0490541152446201
1730698087.27168,913085952.0,1728187675.0,0.707281865,-0.047779665,0.008751857,-0.705260864,108.909294128,145.474136353,-7.501204967,2.0868776768523736,0.0392659390647129
1730698090.00545,636241664.0,1728187678.0,0.714468057,-0.049045914,0.008724164,-0.69789235,108.85559845,143.446777344,-7.417126179,2.0280699635883805,0.05945315528773
1730698092.41251,56867328.0,1728187681.0,0.718689558,-0.043860068,0.016105758,-0.693759484,108.930885315,141.399414063,-7.307516575,2.0487470601391045,0.0830078967860599
1730698095.02798,679203072.0,1728187683.0,0.71261995,-0.042242424,0.013615642,-0.70014502,109.1147995,139.099639893,-7.253063679,2.3071163083909387,0.0351665459347857
1730698097.35788,998977536.0,1728187685.0,0.703530243,-0.04187148,0.012080932,-0.709327836,109.218414307,137.069702148,-7.193249702,2.032580447806499,0.7134490874339415
1730698099.66497,318694144.0,1728187688.0,0.721881436,-0.042883635,0.011530453,-0.690590494,109.311523438,135.01399231,-7.132480145,2.0578173505745383,0.0272639309138481
1730698101.98578,638452224.0,1728187690.0,0.718460209,-0.035891547,0.010383295,-0.694563836,109.47467041,132.933227539,-7.067276001,2.0871509209224466,0.3379801798201138
1730698104.30756,958240768.0,1728187692.0,0.701382339,-0.044289187,0.012165603,-0.711303935,109.640625,130.925735474,-6.994310379,2.0143399209120747,0.0452575377341723
1730698106.52445,177108736.0,1728187695.0,0.721511968,-0.040272818,0.01148431,-0.691134338,109.708015442,128.906387329,-6.931091785,2.02047232160894,0.0313093364544827
1730698108.94522,597716736.0,1728187697.0,0.669751194,-0.044603408,0.01038183,-0.741172091,109.751487732,126.831207275,-6.866030216,2.075635347674863,0.0658241553507495
1730698111.2627,917508096.0,1728187699.0,0.714737105,-0.044890257,0.013493087,-0.697820656,109.803955078,124.801979065,-6.781606197,2.029906389628863,0.0411384044852667
1730698113.68988,338223360.0,1728187702.0,0.7527225,-0.039449879,0.016896767,-0.656937598,110.044799805,122.637542725,-6.722027779,2.1777949518805197,0.0474669901858309
1730698116.41064,61315072.0,1728187705.0,0.688245581,-0.040348767,0.010337234,-0.724281062,110.117034912,120.455726624,-6.665294647,2.1830115458389554,0.0769105653032877
1730698119.03255,683616512.0,1728187707.0,0.682055892,-0.043757795,0.009986932,-0.729921368,109.923088074,118.467933655,-6.602996826,1.9972321506464936,0.0405225438427355
1730698121.85887,507663104.0,1728187710.0,0.682667759,-0.04054206,0.012699204,-0.729492804,109.817695618,116.312286377,-6.520520687,2.158222128727828,0.0468647741927172
1730698124.89538,533564416.0,1728187713.0,0.725205749,-0.042865571,0.011638127,-0.687098048,109.941940308,113.952598572,-6.451705456,2.362956470199768,0.0637448510530556
1730698127.54021,155845376.0,1728187716.0,0.688945597,-0.038846818,0.0135744,-0.723643987,110.012107849,111.656425476,-6.405162811,2.297244952242627,0.311333406167903
1730698129.82204,475517184.0,1728187718.0,0.720367591,-0.039952031,0.014355382,-0.692292036,110.091239929,109.519874573,-6.355314255,2.138015820146156,0.0393363342420464
1730698132.04598,694429440.0,1728187720.0,0.71983161,-0.040555282,0.013228934,-0.692836721,110.246963501,107.56993103,-6.29318428,1.9561517455871849,0.0239168788033108
1730698135.07302,720182784.0,1728187723.0,0.712750254,-0.04060948,0.012497551,-0.700129852,110.402305603,104.862670898,-6.221900463,2.7117132206357013,0.01633694297341
1730698137.90212,544252928.0,1728187726.0,0.69736005,-0.042282803,0.012758189,-0.715358894,110.471626282,102.401954651,-6.170014381,2.461692467548866,0.0642448663976835
1730698140.41719,65709824.0,1728187729.0,0.714898115,-0.039683236,0.014053895,-0.697960162,110.689903259,100.130744934,-6.154713154,2.281674476625322,0.0530950663790228
1730698142.63455,284641536.0,1728187731.0,0.697349692,-0.03779248,0.015713738,-0.715561449,110.725372314,98.127723694,-6.028334141,2.0033352544578675,0.018673126484065
1730698144.84859,503537152.0,1728187733.0,0.719836201,-0.039527768,0.014425531,-0.692867493,110.827392578,96.114570618,-5.98663187,2.0157364514427156,0.010503540763226
1730698147.2765,924262656.0,1728187735.0,0.73533587,-0.040169372,0.014275728,-0.676360704,110.960456848,93.960594177,-5.908504486,2.158082623148069,0.0107981335707616
1730698149.89797,546469888.0,1728187738.0,0.716532741,-0.040475274,0.012371207,-0.696268271,111.085067749,91.655075073,-5.860799789,2.3088841927556665,0.010362057852273
1730698152.21548,866371072.0,1728187740.0,0.700430622,-0.039041677,0.014192472,-0.712510485,111.129753113,89.493392944,-5.819211006,2.16214393799159,0.0538756713166621
1730698154.83952,488557568.0,1728187743.0,0.725890998,-0.038634341,0.015311623,-0.686553128,111.272529602,87.162414551,-5.737960815,2.3353469537617046,0.0635429482835947
1730698157.25768,909185792.0,1728187745.0,0.719529709,-0.040457265,0.012043633,-0.69317758,111.42641449,85.02910614,-5.688164711,2.138851405590889,0.0185173716017406
1730698159.57943,228941568.0,1728187748.0,0.702822732,-0.040719808,0.010593087,-0.710119622,111.496170044,82.976028442,-5.593193054,2.054262366724078,0.2053778113774637
1730698161.7127,346945280.0,1728187750.0,0.81624944,-0.045232676,0.029129563,-0.575188959,111.698753357,81.025230408,-5.471908569,1.961288598897248,0.4047042821017436
1730698162.71413,355642368.0,1728187751.0,0.968146498,-0.029896177,0.030263588,-0.246744105,112.190422058,80.479484558,-5.526162148,0.7345588093102199,0.4415873597705288
1730698163.54837,162452992.0,1728187752.0,0.97812251,-0.027989608,0.028781431,-0.204118953,112.736564636,80.368682861,-5.55088377,0.5572689939002234,0.4770337282952943
1730698164.32432,969275904.0,1728187752.0,0.962556452,-0.030380716,0.027130699,-0.268003703,113.277580261,80.146492004,-5.589476109,0.5848646710381261,0.3538732336502278
1730698165.54206,179584768.0,1728187754.0,0.894675789,-0.033150162,0.007905958,-0.445414173,113.915153503,79.515655518,-5.649132252,0.8969137700934311,0.3614705902525565
1730698167.29216,894221312.0,1728187755.0,0.785718275,-0.029277427,0.00607456,-0.617861414,114.078399658,77.153335571,-5.607043743,2.3679537240234194,0.2998317684684792
1730698168.19082,701153280.0,1728187756.0,0.650200848,-0.035915821,0.002277585,-0.758909535,114.378425598,77.740394592,-5.603634834,0.6592828367327419,0.2390269350395824
1730698169.4739,113109760.0,1728187758.0,0.717507439,-0.036614588,0.000138635,-0.695587819,114.339302063,76.628013611,-5.542760849,1.113068775000638,0.3370970342756423
1730698171.78571,432839168.0,1728187760.0,0.749050811,-0.032720551,0.006022198,-0.661676628,114.517951965,74.602218628,-5.531223774,2.0336570754757464,0.6290818625079486
1730698174.13441,752632576.0,1728187762.0,0.695143435,-0.033764226,0.004647706,-0.718062668,114.66632843,72.604431152,-5.447124481,2.0032898878166243,0.6824368958874621
1730698176.23092,870630400.0,1728187764.0,0.734692367,-0.036152522,0.006867573,-0.677401616,114.757995605,70.581329346,-5.382953644,2.025177470843714,0.1397231970687838
1730698178.46042,89564416.0,1728187767.0,0.653513399,-0.036573728,0.009401568,-0.755972327,114.801963806,68.619094849,-5.33176899,1.9627270375464867,0.0727164803230547
1730698180.67037,308463872.0,1728187769.0,0.700699828,-0.030055585,0.007939678,-0.712778623,114.633163452,66.597160339,-5.26484108,2.028968388674279,0.0449510592347366
1730698183.07649,729085184.0,1728187771.0,0.683034524,-0.033649797,0.005706086,-0.729588225,114.614067078,64.778915405,-5.210373878,1.8183452124161088,0.3023491525457304
1730698184.80829,443642624.0,1728187773.0,-0.433145399,0.03022556,0.001790307,0.90081533,114.405151367,63.839168549,-5.162768364,0.9626889049243964,0.4367510270281723
1730698185.9095,553232640.0,1728187774.0,-0.293364657,0.027819454,0.00126013,0.955594935,113.7890625,63.22309494,-5.123470306,0.871270442370007,0.48981334646964
1730698187.21735,864291328.0,1728187775.0,-0.177864078,0.026648817,0.002847087,0.983690054,113.267486572,62.929668427,-5.090080261,0.5984484666204809,0.4037698709519475
1730698188.34298,973708032.0,1728187776.0,-0.127755474,0.02772128,0.001236145,0.991417451,112.86227417,62.872203827,-5.086022377,0.4092667479624522,0.7548148010032347
1730698189.13322,780657920.0,1728187777.0,-0.198437898,0.033277654,-0.003051025,0.979543622,112.517181396,62.76001358,-5.076182365,0.3628714292816975,0.3088522533228673
1730698190.14357,789168896.0,1728187778.0,-0.302643178,0.033400356,-0.00304693,0.952513639,112.135032654,62.52155304,-5.043259144,0.4504454352629984,0.8059118970727053
1730698190.97823,596036096.0,1728187779.0,-0.28843535,0.025024572,0.003696874,0.957165152,111.766448975,62.247516632,-5.033202648,0.4592928056640072,0.2786145359515947
1730698192.47054,108920832.0,1728187781.0,-0.060125776,0.040817272,0.001077643,0.997355332,110.94417572,61.925655365,-4.963013649,0.8830220728176279,0.2377536862151879
1730698194.88397,529570560.0,1728187783.0,-0.031339241,0.028338192,0.000188864,0.999106992,108.886856079,61.777362823,-4.858285427,2.062657214191737,0.0665915205068873
1730698197.50468,151908864.0,1728187786.0,0.055466294,0.029303901,0.005063176,0.998017589,106.767242432,61.764533997,-4.75977993,2.1196524694687935,0.1855671653775515
1730698199.97448,572610816.0,1728187788.0,-0.058559185,0.023756892,0.003659319,0.997994506,104.6953125,61.743995667,-4.688108921,2.072031724206154,0.2553694877308191
1730698202.5706,194844416.0,1728187791.0,0.039839193,0.025898999,0.006688918,0.998847991,102.600692749,61.665218353,-4.593292236,2.0961006098182264,0.0851807614263292
1730698204.78141,413752064.0,1728187793.0,-0.016160371,0.033322017,0.004840016,0.999302293,100.579429626,61.672954559,-4.496463299,2.0212779277682165,0.0309079505415285
1730698206.98263,632647680.0,1728187795.0,-0.007982243,0.028764091,0.002325509,0.999551658,98.565605164,61.526447296,-4.410543442,2.0191466865637446,0.04298712494615
1730698209.25336,851543040.0,1728187797.0,-0.054283996,0.024874662,-0.004324362,0.998206281,96.545913696,61.236503601,-4.33393383,2.040397258423532,0.1217790291847109
1730698211.63504,272121600.0,1728187800.0,0.021673715,0.027243828,-0.003088749,0.999389052,94.386116028,61.130317688,-4.233512402,2.162406394463785,0.0604755618580833
1730698213.85836,491037184.0,1728187802.0,0.010616886,0.022998899,-0.00290904,0.999674878,92.380195618,61.081180573,-4.153523922,2.006522152213899,0.029814128022972
1730698216.07592,709913600.0,1728187804.0,-0.013333936,0.025393984,0.001235064,0.999587831,90.360847473,61.003883362,-4.080587387,2.020827006337578,0.0292896990154813
1730698218.38205,29708800.0,1728187807.0,0.004125091,0.029339485,0.000564845,0.999560826,88.361083984,60.871124268,-3.98042202,2.0041654095850387,0.0494286145937339
1730698220.60002,248599296.0,1728187809.0,-0.009294062,0.020880009,-0.004074195,0.999730476,86.327445984,60.747169495,-3.886219025,2.037412157810374,0.0350662503097452
1730698223.02202,669207552.0,1728187811.0,0.000298565,0.032946429,0.004081175,0.999448744,84.231140137,60.631351471,-3.782200575,2.0995028027725127,0.031117775642901
1730698225.58985,190691328.0,1728187814.0,0.03418401,0.032156638,0.002099607,0.99889587,82.043144226,60.617565155,-3.676412106,2.1880393435817327,0.0357779031564158
1730698227.76299,409551360.0,1728187816.0,-0.013731395,0.029378884,-0.002557996,0.999470757,80.01789856,60.610244751,-3.540939569,2.025258896034397,0.0470481452430133
1730698230.28985,830203648.0,1728187818.0,0.029161595,0.028048684,0.000460236,0.999180995,78.133392334,60.436943054,-3.446941614,1.8924579768163523,0.644695165086509
1730698232.92677,553398528.0,1728187821.0,-0.035067345,0.033310932,0.005143418,0.998816393,76.142295837,60.382553101,-3.330457926,1.9918392323059149,0.5188363880138805
1730698233.91471,561962240.0,1728187822.0,-0.021081255,0.033130437,0.004232096,0.999219709,75.286598206,60.245449066,-3.302559376,0.8666117655053586,0.4421632903260583
1730698235.97589,579125504.0,1728187824.0,-0.143629924,0.025719972,-0.000986313,0.989296689,73.119804382,60.204048157,-3.18189764,2.1671893112948277,0.3992022038900861
1730698236.78487,385997568.0,1728187825.0,-0.233145047,0.032839194,-3.352e-05,0.971887323,72.447265625,60.032745361,-3.16292119,0.6940122676037649,0.3850102424839978
1730698238.06151,697204224.0,1728187826.0,-0.256701918,0.030555892,-0.0054601,0.965992047,72.219291687,59.027206421,-3.144572735,1.0310580372915754,0.5181835861698502
1730698238.75528,403213824.0,1728187827.0,-0.247301392,0.031133556,-0.001094113,0.968437675,71.706497192,58.649349213,-3.114628077,0.636972733906135,0.5160747735040145
1730698239.66577,310923008.0,1728187828.0,-0.21786992,0.027628255,-0.00019258,0.975586671,71.027351379,58.346469879,-3.075261593,0.7436228387292336,0.2873029137967809
1730698244.15155,748702976.0,1728187832.0,-0.138219061,0.025427556,-0.003935625,0.990067387,69.555725098,58.058525085,-3.000907898,1.499531965421741,0.0626656143020022
1730698245.30251,858164224.0,1728187833.0,-0.072047818,0.025557215,-0.002966012,0.997069274,67.553573608,57.760475159,-2.909939051,2.024214501306083,0.0486893405427421
1730698246.01769,665060352.0,1728187834.0,-0.03423578,0.026044417,-3.7562e-05,0.999074351,65.555740356,57.760280609,-2.805274487,1.9978332614726808,0.0411117268015144
1730698248.46827,85635072.0,1728187837.0,-0.002601951,0.028083604,0.00171729,0.999600711,63.467529297,57.603340149,-2.731155396,2.0941002208382775,0.025667914859743
1730698250.75345,405429760.0,1728187839.0,0.002047941,0.021629542,0.0124572,0.999686348,61.408424377,57.50579834,-2.664904833,2.061413950683167,0.0185486050458066
1730698252.97442,624430080.0,1728187841.0,-0.010303361,0.021166589,-0.002176272,0.999720497,59.410228729,57.401485443,-2.595051289,2.0009165470270545,0.0184854175182825
1730698255.3266,944079360.0,1728187843.0,-0.036585063,0.020699927,-0.007701517,0.999086425,57.337406158,57.244838715,-2.543673992,2.078733173892255,0.0716612330176691
1730698257.61556,263892224.0,1728187846.0,-0.016708497,0.020720359,0.004091935,0.999637292,55.330387115,57.010322571,-2.475818634,2.020673962013977,0.1106836371496359
1730698259.93541,583558144.0,1728187848.0,-0.051907405,0.022478513,-4.0924e-05,0.99839887,53.282058716,56.811325073,-2.410862446,2.057972117002599,0.0931045148050892
1730698262.16425,802461696.0,1728187850.0,-0.194660706,0.015200795,-0.01078352,0.980693563,51.240650177,56.226791382,-2.348536491,2.1234473054484315,0.1096282231475375
1730698264.37979,21497088.0,1728187853.0,-0.290348795,0.012567352,-0.013328788,0.95674551,49.43523407,55.238990784,-2.310160875,2.0579789456707736,0.1296169346751284
1730698266.69663,341143808.0,1728187855.0,-0.450272823,0.018648535,-0.003144519,0.892690714,47.936100006,53.778362274,-2.286916018,2.093045290018824,0.143169448664467
1730698269.03382,660985344.0,1728187857.0,0.548966394,-0.012895576,0.015814793,-0.835595303,46.869476318,52.079509735,-2.251322508,2.005937696208302,0.1485221173167526
1730698271.44828,81508608.0,1728187860.0,0.672709816,-0.007587983,0.015255945,-0.739710205,46.50592804,50.066375732,-2.248645544,2.0456969141276975,0.1398190428612091
1730698273.75949,401230848.0,1728187862.0,0.715000736,-0.015150278,0.016881826,-0.698755619,46.590431213,48.009529114,-2.265834332,2.058581743877343,0.0853789905867512
1730698276.08625,720989440.0,1728187864.0,0.713910148,-0.020171456,0.006871848,-0.699912975,46.684978485,45.902534485,-2.251064062,2.109114874367329,0.0311973102636019
1730698278.20134,839041792.0,1728187866.0,0.703151245,-0.012632634,0.010896994,-0.71084457,46.713882446,43.877044678,-2.25224781,2.0256960278438583,0.0408658779937519
1730698280.41055,58058240.0,1728187869.0,0.741171774,-0.014582121,0.015125446,-0.670986542,46.948856354,41.852180481,-2.314697742,2.0384522937104133,0.0968499949027916
1730698282.62977,276825856.0,1728187871.0,0.688178967,-0.013933797,0.017012675,-0.725207635,47.051696777,39.870193481,-2.294564486,1.984653274698582,0.0568011920275262
1730698284.9514,596609280.0,1728187873.0,0.699796209,-0.025458496,0.011376052,-0.713798064,47.141262054,37.876853943,-2.29657197,1.995350709173238,0.0818317498240922
1730698287.2796,916329728.0,1728187875.0,0.715340782,-0.010007948,0.016631665,-0.698506113,47.163547516,35.842609406,-2.311627388,2.034366603670758,0.0866321322387894
1730698289.6244,236084480.0,1728187878.0,0.710147357,-0.016032756,0.013272869,-0.703745339,47.313591003,33.663459778,-2.30746603,2.184309078222145,0.042721524685982
1730698292.32747,959412480.0,1728187880.0,0.704613685,-0.022189689,0.015905688,-0.709065682,47.27501297,31.669347763,-2.305679083,1.9944851448425207,0.1081075950771314
1730698294.83157,480751872.0,1728187883.0,0.763113135,-0.014711407,0.005853809,-0.646070931,47.429298401,30.329380035,-2.330651045,1.3488207836107586,0.6791198012185454
1730698296.5508,195352320.0,1728187885.0,0.712789293,-0.017047519,0.015539916,-0.700998803,47.520103455,29.484315872,-2.310542107,0.849928819030649,0.1435303045854299
1730698299.3786,19404032.0,1728187888.0,0.696470814,-0.01348913,0.019375375,-0.717196669,47.551750183,28.305742264,-2.321816444,1.1789984159731706,0.370800075509032
1730698300.30385,927148032.0,1728187888.0,0.678410307,-0.01493697,0.018847432,-0.734289513,47.563850403,27.988040924,-2.308144569,0.3179316856839585,1.582951444477823
1730698301.20437,834866688.0,1728187889.0,0.673667954,-0.01364646,0.018941845,-0.738665348,47.553890228,27.816257477,-2.323088408,0.1720719551502571,0.3631122819984806
1730698307.14125,785540608.0,1728187895.0,0.673679893,-0.013461038,0.018780813,-0.738661946,47.553798676,27.819324493,-2.326195717,0.0030683821328112,10.0
1730698315.2079,854304256.0,1728187903.0,0.673694754,-0.013809645,0.018101369,-0.738658901,47.556030273,27.814680099,-2.335031986,0.0051527100440091,10.0
1730698323.17662,822149120.0,1728187911.0,0.6738161,-0.013665827,0.018775729,-0.738534059,47.545032501,27.817920685,-2.322403431,0.0114652687097728,10.0
1730698328.13246,764215808.0,1728187916.0,0.674026115,-0.014037072,0.019088282,-0.738327401,47.548500061,27.821266174,-2.325154066,0.0048183263694676,10.0
1730698334.08159,715018752.0,1728187922.0,0.673848434,-0.013519588,0.018746941,-0.738507975,47.5522995,27.82153511,-2.329341173,0.0038089451672084,10.0
1730698339.82705,463873536.0,1728187928.0,0.673885311,-0.013909205,0.018663322,-0.738469242,47.55298996,27.824264526,-2.322789192,0.0028153945927105,10.0
1730698345.78151,414515456.0,1728187934.0,0.673759634,-0.013554094,0.018584888,-0.738592481,47.553722382,27.828767776,-2.324366093,0.0045624228813837,10.0
1730698349.02102,642001664.0,1728187937.0,0.708861944,-0.013918758,0.017843374,-0.70498414,47.549472809,27.776380539,-2.321832657,0.0525593138385218,0.5115784119382812
