__time,/pcl_pose/header/stamp/nanosec,/pcl_pose/header/stamp/sec,/pcl_pose/pose/pose/orientation/w,/pcl_pose/pose/pose/orientation/x,/pcl_pose/pose/pose/orientation/y,/pcl_pose/pose/pose/orientation/z,/pcl_pose/pose/pose/position/x,/pcl_pose/pose/pose/position/y,/pcl_pose/pose/pose/position/z,distance,curvature
1730698824.06473,687625216.0,1728188412.0,0.693980385,-0.020628484,0.020344862,-0.719410713,-54.201805115,-184.01852417,8.427724838,0.0400551609485246,1.6761642214733623
1730698825.56498,200509440.0,1728188414.0,0.691693296,-0.029169736,0.011176007,-0.721515488,-54.179161072,-184.160919189,8.426827431,0.1441842367229987,1.477932098128916
1730698826.20113,805697536.0,1728188414.0,0.709420652,-0.036617943,0.007449257,-0.703793975,-54.176246643,-184.378326416,8.440378189,0.2174267606533831,1.2971810677017446
1730698828.59316,226279168.0,1728188417.0,0.690152976,-0.053969956,-0.006970268,-0.721614492,-54.080883026,-185.971466064,8.49095726,1.5959912773812084,0.1227370657279603
1730698830.81485,445210624.0,1728188419.0,0.757764036,-0.043800905,0.006513545,-0.651024364,-53.822166443,-187.947357178,8.52067852,1.9927568754625795,0.0983871461533708
1730698833.12986,764929536.0,1728188421.0,0.738342582,-0.040828216,0.009099259,-0.673127361,-53.579093933,-189.940643311,8.619776726,2.0080522535849967,0.0424999713102608
1730698835.45437,84721664.0,1728188424.0,0.718254414,-0.02892564,0.020500218,-0.694876699,-53.390174866,-192.077316284,8.661018372,2.145008579802147,0.0189582914029473
1730698837.66799,303585536.0,1728188426.0,0.719279157,-0.035534534,0.010881797,-0.693726456,-53.192749023,-194.115066528,8.684405327,2.0472916305222126,0.0306093909000516
1730698839.91487,522478336.0,1728188428.0,0.719441191,-0.033591211,0.008717742,-0.693685808,-53.05015564,-196.159896851,8.717704773,2.049796068572609,0.5374875693212308
1730698841.91046,539657472.0,1728188430.0,0.717791964,-0.024943643,0.000576814,-0.695810392,-53.026618958,-197.906387329,8.80207634,1.7466490675416833,0.1116388914960332
1730698843.10387,749965568.0,1728188431.0,0.737092996,-0.047894497,0.000774257,-0.674091555,-52.794803619,-198.787246704,8.726872444,0.9108521229711636,0.5438830805453883
1730698845.22862,868006400.0,1728188433.0,0.702313357,-0.047998817,0.011308431,-0.710157822,-52.593715668,-200.729644775,8.811713219,1.9527792067363483,0.2446365858136515
1730698847.57717,187761152.0,1728188436.0,0.762136543,-0.041156352,0.014485905,-0.645944415,-52.385917664,-202.736557007,8.874547958,2.017641374827938,0.1106319664439678
1730698850.58493,213530880.0,1728188439.0,0.677102303,-0.039073495,0.017255408,-0.734648164,-52.276706696,-204.72303772,8.916788101,1.989480499691456,0.1111950020365586
1730698854.72723,348743680.0,1728188443.0,0.702604367,-0.033390526,0.01181766,-0.710698618,-52.39396286,-206.734130859,8.943006516,2.014508531063806,0.1070087433474971
1730698857.43346,71975680.0,1728188446.0,0.638359568,-0.039709014,0.016168072,-0.768543315,-52.562644958,-208.439117432,9.046010971,1.7133104985074696,0.3062700651950218
1730698858.87992,483998976.0,1728188447.0,-0.459353983,0.042798466,-0.002001821,0.887219351,-52.887031555,-209.208862305,9.058895111,0.8353046353415252,0.2997623606756808
1730698860.67415,299421696.0,1728188449.0,-0.318877423,0.042461155,0.000471498,0.946844247,-53.639167786,-209.885971069,9.149107933,1.0120203497304243,0.688340413914163
1730698863.18449,820895744.0,1728188451.0,-0.433971003,0.039855669,-0.009613339,0.899993478,-54.912132263,-211.434585571,9.257554054,2.004655939434157,0.291988381086497
1730698864.59989,232927488.0,1728188453.0,-0.395709547,0.033996369,-0.009177718,0.917700383,-55.686267853,-212.351806641,9.314034462,1.200241810201828,0.1083983384380992
1730698866.31764,947528448.0,1728188454.0,-0.408816903,0.037553087,-0.012811773,0.91175342,-56.657951355,-213.535980225,9.381788254,1.5318080509980403,0.7922822467980882
1730698868.53919,166419712.0,1728188457.0,-0.398976951,0.042138502,-0.008775658,0.915950171,-57.988231659,-215.015274048,9.50795269,1.9894612089649557,0.0493218130724908
1730698869.14311,771577600.0,1728188457.0,-0.410455324,0.039601616,-0.006355273,0.910998237,-58.360057831,-215.439697266,9.537361145,0.5642603744386425,0.734451033156977
1730698870.0634,679304960.0,1728188458.0,-0.371707148,0.035401748,-0.005847665,0.927656375,-58.92332077,-216.06022644,9.603940964,0.8380462959980507,0.8092028438103309
1730698870.45187,82739456.0,1728188459.0,-0.331268883,0.037097357,-0.006114643,0.942787013,-59.15820694,-216.267944336,9.610964775,0.3135573905618131,0.9204370850680196
1730698877.15421,638571520.0,1728188465.0,-0.165973523,0.033030628,0.001060136,0.985576283,-60.245536804,-217.085510254,9.70808506,1.656667817507756,0.5176463919190895
1730698877.79617,344583168.0,1728188466.0,-0.119521119,0.03389684,-0.000911667,0.992252423,-60.917961121,-218.898849487,9.797738075,1.9339993888390767,0.4547503941091069
1730698878.8454,454039552.0,1728188467.0,-0.135290502,0.032887588,0.000159968,0.990259994,-61.564182281,-219.26373291,9.815925598,0.7421197342827723,0.2281324931359892
1730698880.6621,269496576.0,1728188469.0,-0.123481622,0.036965107,0.002337478,0.991655387,-63.296497345,-219.73399353,9.942502022,1.7950098973777573,0.3765091175880827
1730698881.79287,278083072.0,1728188470.0,-0.079612897,0.03082873,0.003492881,0.996342908,-64.390380859,-219.768600464,10.002180099,1.0944308027837486,0.1993962572852157
1730698883.94175,496985088.0,1728188472.0,-0.111684091,0.037727077,0.000381174,0.993027279,-66.357215881,-220.333007813,10.122423172,2.0462149592286076,0.3179729533894844
1730698885.99537,615023616.0,1728188474.0,-0.120852161,0.035184484,0.001385375,0.992045805,-68.271499634,-220.852340698,10.252754211,1.9834789972273896,0.0536154649186655
1730698888.21468,833955072.0,1728188476.0,-0.109430842,0.033535518,0.001052247,0.99342798,-70.207473755,-221.368545532,10.374164581,2.003612544337527,0.068964694386806
1730698890.43353,52812288.0,1728188479.0,-0.038480121,0.03081641,0.002539634,0.998780834,-72.045272827,-221.653167725,10.481815338,1.859708370092532,0.0648477330356643
1730698892.56098,170852352.0,1728188481.0,-0.010668996,0.031766431,0.0032418,0.999433118,-73.986251831,-221.871276855,10.594261169,1.9531950969010183,0.1023000911886905
1730698894.66849,288889600.0,1728188483.0,-0.00627821,0.031372174,-0.001021427,0.999487522,-76.020202637,-222.034301758,10.686384201,2.040473719562735,0.0538493965142243
1730698896.80404,406925568.0,1728188485.0,0.00605585,0.0389356,0.001272967,0.999222565,-78.046211243,-222.098861694,10.839549065,2.0270369648633464,0.0703797789180065
1730698899.19806,726688256.0,1728188487.0,-0.033810481,0.03816528,-0.001851481,0.998697558,-80.180786133,-222.262573242,11.000748634,2.140843626229402,0.1545880262224807
1730698901.42518,46442240.0,1728188490.0,-0.01661009,0.034294113,0.002505873,0.999270583,-82.058204651,-222.193908691,11.097000122,1.8786737641999864,0.2099796112765798
1730698902.24043,853314048.0,1728188490.0,0.01563571,0.032498715,0.002104682,0.99934725,-82.81061554,-222.316040039,11.127186775,0.762258625435013,0.554774715266996
1730698903.368,962793472.0,1728188491.0,0.01883066,0.033113705,0.005224824,0.999260532,-84.071228027,-222.337753296,11.234905243,1.2607994717281097,0.3468976945008044
1730698904.17261,769631232.0,1728188492.0,-0.008918002,0.03556588,0.005247023,0.999313752,-84.85168457,-222.388961792,11.282090187,0.7821347234166848,0.1109679437708384
1730698906.39914,988564224.0,1728188494.0,-0.05319737,0.038590683,0.005380357,0.99782356,-86.895187378,-222.474090576,11.405676842,2.045275198150411,0.3150992975115455
1730698908.38443,5741824.0,1728188497.0,-0.008764621,0.034800871,0.004384304,0.999346206,-88.780204773,-222.659301758,11.548820496,1.8940944436300915,0.0792902026230947
1730698910.40819,22919936.0,1728188499.0,0.02137683,0.038575206,0.008049671,0.99899459,-90.588935852,-222.740310669,11.662388802,1.8105442717044928,0.2103769271574763
1730698912.31433,939244032.0,1728188500.0,-0.025826017,0.038942026,0.006593979,0.998885912,-92.550102234,-222.70149231,11.818287849,1.9615505200943395,0.0747907737693086
1730698914.57301,158163456.0,1728188503.0,0.000468154,0.037686803,0.003906247,0.999281856,-94.528686523,-222.84777832,11.959720612,1.983984724084186,0.0774010172705045
1730698916.34819,973600768.0,1728188504.0,-0.012374836,0.033110129,0.007957924,0.999343418,-96.371520996,-222.868469238,12.108588219,1.8429506257534023,0.0498901976264607
1730698918.57499,192459520.0,1728188507.0,-0.01759054,0.029914021,0.007741369,0.999367685,-98.127120972,-222.950317383,12.18346405,1.7575068689968585,0.0460229978636187
1730698920.49839,108822016.0,1728188509.0,-0.005166087,0.031174575,0.0069597,0.999476385,-100.108299255,-223.086654663,12.324910164,1.985863853074688,0.0300142517323498
1730698921.33801,915690240.0,1728188509.0,-0.021573229,0.03766242,0.005104832,0.999044573,-102.955612183,-223.097595215,12.50051403,2.847333946981626,0.0283677228054531
1730698921.78045,419987200.0,1728188510.0,-0.016451778,0.037962116,0.004620888,0.999133055,-105.162254333,-223.32069397,12.652626991,2.2178914835129344,0.0308397775037203
1730698924.11133,739738624.0,1728188512.0,0.057301044,0.032681715,0.008488938,0.997785747,-107.20791626,-223.302566528,12.787176132,2.045742242739981,0.0346894296266002
1730698926.31324,958636800.0,1728188514.0,-0.00272392,0.025104735,0.008070086,0.999648524,-109.288673401,-223.172653198,12.902662277,2.0848088049349154,0.0570061263590708
1730698928.53542,177496832.0,1728188517.0,-0.026130326,0.032985767,0.007207598,0.999088177,-111.295776367,-223.320388794,13.027131081,2.012532763075297,0.0336464564101459
1730698930.88066,497251072.0,1728188519.0,-0.0394136,0.03342862,0.00763976,0.998634427,-113.391075134,-223.534378052,13.161015511,2.10619759888077,0.0540271505836454
1730698933.27719,917867520.0,1728188521.0,-0.009509281,0.033095811,0.010144075,0.999355459,-115.534706116,-223.664993286,13.284682274,2.147606604185953,0.0324828247880111
1730698935.59539,237660416.0,1728188524.0,-0.002382119,0.032874765,0.009635935,0.999410187,-117.578773499,-223.793258667,13.426933289,2.048087760377357,0.0418275062830613
1730698937.87264,456524032.0,1728188526.0,-0.009872629,0.029125527,0.010102944,0.99947593,-119.601875305,-223.918838501,13.533559799,2.0269956122665707,0.0499528134626505
1730698940.12871,776279808.0,1728188528.0,0.01717989,0.03033903,0.011630443,0.999324332,-121.617774963,-223.967849731,13.664977074,2.0164953587327363,0.0268165564473284
1730698942.40228,995172608.0,1728188530.0,-0.002858479,0.031409851,0.011417923,0.999437271,-123.639175415,-224.017974854,13.751787186,2.0220218384828454,0.0206220475840853
1730698944.59321,214082816.0,1728188533.0,-0.035386542,0.034858779,0.010852564,0.998706592,-125.651184082,-224.10244751,13.897104263,2.013781146424513,0.0363715416324661
1730698946.90213,533863168.0,1728188535.0,-0.014133466,0.030696103,0.010888026,0.999369527,-127.698562622,-224.173355103,13.989997864,2.048606056028727,0.0777869911768901
1730698949.25598,853585408.0,1728188537.0,-0.016023344,0.033154056,0.010188317,0.999269837,-129.724349976,-224.255432129,14.118014336,2.02744939315964,0.0471787521861442
1730698951.42839,72476928.0,1728188540.0,-0.032272737,0.033320731,0.011743856,0.99885448,-131.735198975,-224.501419067,14.266957283,2.0258389053539942,0.0494579839292841
1730698953.7768,392233216.0,1728188542.0,0.003853143,0.032108143,0.013537364,0.999385302,-133.752761841,-224.576339722,14.361815453,2.0189534474097535,0.0381326600517394
1730698956.16981,812848128.0,1728188544.0,-0.018063618,0.033378249,0.01242508,0.999202276,-135.95199585,-224.706832886,14.506864548,2.2031020612293433,0.0370697777966496
1730698958.70739,334323200.0,1728188547.0,0.017469047,0.03143183,0.012517083,0.999274818,-138.108810425,-224.876113892,14.638204575,2.163447519567969,0.044369237481776
1730698960.92024,553257984.0,1728188549.0,0.010819728,0.035595223,0.012461767,0.999229999,-140.099624634,-224.888153076,14.735855103,1.9908506113487543,0.0387650390951252
1730698963.27887,872975872.0,1728188551.0,-0.048535831,0.031747664,0.010124834,0.998265409,-142.247009277,-224.987945557,14.866276741,2.14970215245189,0.0672673721257711
1730698965.96241,596202496.0,1728188554.0,0.028808042,0.029443674,0.01149429,0.999085105,-144.599746704,-225.08392334,14.998722076,2.354694276384152,0.0746616702448839
1730698968.28159,915922432.0,1728188556.0,-0.036189442,0.033038849,0.010082922,0.998747757,-146.730270386,-225.180603027,15.131012917,2.1327161370987007,0.0283934026278267
1730698970.5906,235678464.0,1728188559.0,-0.03156127,0.031629104,0.010623692,0.998944746,-148.724472046,-225.38848877,15.266950607,2.0050079159168863,0.0386282023742751
1730698973.13153,757190400.0,1728188561.0,-0.023709608,0.031865643,0.010630365,0.999154359,-150.985092163,-225.492935181,15.345519066,2.2630316759064337,0.0163227322194568
1730698975.84552,480381952.0,1728188564.0,-0.031985228,0.03279442,0.011792896,0.998880572,-153.438369751,-225.71446228,15.511734009,2.463259056488892,0.0992181850580276
1730698978.16621,800099584.0,1728188566.0,-0.020562174,0.033906671,0.012131785,0.999139811,-155.471664429,-225.9296875,15.640311241,2.044653795366609,0.0219382697655592
1730698980.58242,220714752.0,1728188569.0,0.00332246,0.033173852,0.011415013,0.999378883,-157.630752563,-225.982452393,15.774242401,2.1597327853956623,0.1883432540082391
1730698982.8032,439649280.0,1728188571.0,-0.016682403,0.031637451,0.01063871,0.999303545,-159.645492554,-226.10118103,15.901837349,2.0182352986157372,0.0227020664662221
1730698985.03044,658511104.0,1728188573.0,-0.023140501,0.03111981,0.010169118,0.999196005,-161.679595947,-226.273590088,15.998344421,2.041396947360948,0.0259682728350528
1730698987.33753,978269696.0,1728188575.0,-0.017584226,0.029314445,0.009939901,0.999366127,-163.800720215,-226.36769104,16.109106064,2.12321057586522,0.0430367608312289
1730698989.45993,96302080.0,1728188578.0,-0.081986583,0.032935751,0.008246174,0.996054922,-165.772979736,-226.649734497,16.234464645,1.9923243033732203,0.0396437475498128
1730698991.67371,315235584.0,1728188580.0,-0.104330912,0.031558115,0.008148069,0.994008413,-167.779373169,-227.041229248,16.353822708,2.044231578869206,0.0446061156993348
1730698993.9946,634995200.0,1728188582.0,-0.094928028,0.032198394,0.008882124,0.994923619,-169.765716553,-227.569137573,16.482465744,2.0552973601804947,0.021656071567436
1730698996.21995,853852160.0,1728188584.0,-0.087425263,0.028640247,0.010283336,0.995706184,-171.794128418,-227.963928223,16.589820862,2.0664738932297797,0.020871175557431
1730698998.43256,72749056.0,1728188587.0,-0.121946216,0.030791036,0.011243654,0.991995275,-173.790237427,-228.422729492,16.714622498,2.048157655124938,0.5134124865943112
1730699000.95737,594230528.0,1728188589.0,-0.040863347,0.02963082,0.013914383,0.998628361,-175.979766846,-228.925827026,16.8391819,2.2465854547253143,0.0395374469536751
1730699003.07603,712263424.0,1728188591.0,-0.087650953,0.033074158,0.010645114,0.995545105,-177.953811646,-229.228652954,16.966274261,1.9971370546550151,0.044061906102185
1730699005.72781,334593536.0,1728188594.0,-0.056073334,0.02816587,0.009281028,0.997986129,-180.249755859,-229.723098755,17.101465225,2.348581801712421,0.0616994907079824
1730699007.51146,150065664.0,1728188596.0,-0.190526207,0.031970545,0.00453098,0.981150918,-181.729354858,-230.222229004,17.18879509,1.5615198376289017,0.0635332610152771
1730699009.83038,469810944.0,1728188598.0,-0.143482252,0.032536433,0.007064845,0.989092671,-183.654144287,-230.926971436,17.323856354,2.049750287584188,0.3091998772110549
1730699011.94459,587894272.0,1728188600.0,-0.18597728,0.033011129,0.005610998,0.981983299,-185.541122437,-231.615783691,17.441123962,2.0087679958660254,0.0389624718718248
1730699014.1677,806796800.0,1728188602.0,-0.21394306,0.033982387,0.004763154,0.976243234,-187.403381348,-232.515365601,17.571054459,2.068152766213895,0.0187693607855558
1730699017.10969,731655680.0,1728188605.0,-0.21760328,0.034519856,0.005599894,0.975410583,-189.810623169,-233.698364258,17.73478508,2.6822190453494086,0.015692238033742
1730699019.31054,950555648.0,1728188607.0,-0.228733038,0.034204107,0.004448367,0.972877952,-191.604217529,-234.670684814,17.848480225,2.0401931261142927,0.0160723158207508
1730699021.73405,371178752.0,1728188610.0,-0.235672091,0.033234693,0.004537366,0.971253582,-193.558670044,-235.800125122,17.99131012,2.257325860996791,0.0253504698117342
1730699023.95246,590075904.0,1728188612.0,-0.212934085,0.035209149,0.004447688,0.976421827,-195.329360962,-236.717681885,18.108562469,1.9943060799222263,0.0243382257804041
1730699026.17383,809007360.0,1728188614.0,-0.221352851,0.036686634,0.004888607,0.974491212,-197.174575806,-237.671035767,18.219909668,2.076945219509276,0.2504411872488747
1730699028.75126,330436352.0,1728188617.0,-0.190502391,0.03632783,0.006399522,0.980993472,-199.167785645,-238.691314697,18.372680664,2.239163807605048,0.0440942373966563
1730699030.91517,549372672.0,1728188619.0,-0.234109756,0.038154573,0.002762639,0.971457267,-201.014770508,-239.512084961,18.505907059,2.0211424765260175,0.0684860871646415
1730699033.77606,373383680.0,1728188622.0,-0.273687704,0.036675873,-5.157e-05,0.961119076,-203.119293213,-241.013092041,18.665472031,2.5849638430876745,0.0606086684191101
1730699035.9644,592284672.0,1728188624.0,-0.275415301,0.039223258,0.001280173,0.960523966,-204.797485352,-242.189575195,18.781446457,2.0494978572926636,0.0179019846225113
1730699038.0719,710321920.0,1728188626.0,-0.277658249,0.034698091,0.000195295,0.960053052,-206.480422974,-243.255233765,18.908004761,1.9919606490484376,0.052055505008356
1730699040.19885,828400640.0,1728188628.0,-0.295989286,0.032964114,0.001121389,0.954621617,-208.100463867,-244.417144775,19.004262924,1.993632285591164,0.0358918506006273
1730699042.44728,47297024.0,1728188631.0,-0.320127452,0.033642171,0.001340861,0.946776014,-209.70904541,-245.698226929,19.150424957,2.0563817898866605,0.0615851688811844
1730699044.73275,367085824.0,1728188633.0,-0.255312419,0.033764079,0.002383257,0.966265924,-211.378234863,-246.777740479,19.244298935,1.9878488208714589,0.0905424216011712
1730699046.9569,585911296.0,1728188635.0,-0.372312765,0.038995878,-0.001123242,0.92728704,-212.973815918,-248.065551758,19.359096527,2.050447949447787,0.0879120153431771
1730699049.16999,804809728.0,1728188637.0,-0.411602741,0.033704008,-0.004533498,0.910728651,-214.293075562,-249.584472656,19.483922958,2.011856531333222,0.1254329735416972
1730699051.29349,922847744.0,1728188639.0,-0.378898671,0.033083088,-0.001649593,0.92484517,-215.722183228,-251.043228149,19.611997604,2.0421352328818907,0.0752031149736108
1730699053.61794,242636544.0,1728188642.0,-0.320528377,0.032184065,0.000216513,0.94669198,-217.093078613,-252.502105713,19.746192932,2.0019185556252883,0.0740796912532639
1730699055.72675,360638464.0,1728188644.0,-0.325512958,0.036446518,0.002231325,0.944832246,-218.637023926,-253.79460144,19.834379196,2.0135323026582017,0.0316995466451384
1730699057.94126,579568640.0,1728188646.0,-0.281584697,0.036375209,0.002629928,0.958843034,-220.237960815,-254.980361938,19.96172905,1.992241672382682,0.0531269593108584
1730699060.40132,204288.0,1728188649.0,-0.18573664,0.03628872,-0.002248215,0.981926666,-221.980224609,-256.121643066,20.08376503,2.082787973129339,0.0659459666743489
1730699062.58542,219048704.0,1728188651.0,-0.237424195,0.036499904,-0.005214819,0.970706103,-223.902511597,-256.995361328,20.201715469,2.1115328237056645,0.5359959825859155
1730699064.50794,135369984.0,1728188653.0,-0.208503905,0.040202962,-0.001868451,0.977193095,-225.25352478,-257.79006958,20.320444107,1.5674175660737948,0.0461845349387645
1730699066.63503,253407232.0,1728188655.0,-0.203289712,0.031955607,-0.002455311,0.978593934,-227.119781494,-258.671020508,20.455818176,2.0637317316197263,0.0487594658441996
1730699068.93707,573161728.0,1728188657.0,-0.130055019,0.037164706,0.000619126,0.990809806,-228.9609375,-259.341217041,20.563047409,1.9593414279484491,0.0546901095186507
1730699071.15309,792061696.0,1728188659.0,-0.08838089,0.037352264,0.002209402,0.995383709,-230.908737183,-259.865814209,20.695335388,2.01720742457699,0.0458356777831588
1730699074.57894,120399616.0,1728188663.0,-0.026524142,0.036708499,0.004112302,0.998965473,-233.852294922,-260.317443848,20.890195847,2.978002937145972,0.0356278298752153
1730699076.80888,440157952.0,1728188665.0,-0.008689732,0.035105898,0.003132414,0.999340898,-236.032073975,-260.540802002,21.048109055,2.191192731106942,0.0265384160786215
1730699079.24297,860833280.0,1728188667.0,-0.009487501,0.032026245,0.002308436,0.999439321,-238.288421631,-260.566223145,21.191465378,2.25649085512176,0.1494810685942154
1730699081.43787,79670528.0,1728188670.0,0.027546631,0.033578927,0.003753773,0.999049323,-240.293930054,-260.597717285,21.311077118,2.0057556968829005,0.0243878706488644
1730699083.66494,298565120.0,1728188672.0,0.009540582,0.033863716,0.003889578,0.999373344,-242.334075928,-260.581481934,21.434505463,2.040210472922191,0.0108655039136254
1730699085.89118,517461248.0,1728188674.0,0.040045581,0.032425759,0.004105482,0.998663143,-244.380722046,-260.539459229,21.551208496,2.0470774875563267,0.0433983969814275
1730699088.11016,736358656.0,1728188676.0,0.02620085,0.034286963,0.003837736,0.999061136,-246.371810913,-260.549591064,21.659727097,1.9911146452105213,0.0689139987991203
1730699090.47564,56114176.0,1728188679.0,0.006067951,0.036256057,0.002323245,0.999321409,-248.508865356,-260.435302734,21.808843613,2.1401082950916948,0.0619660334274509
1730699092.53949,174153728.0,1728188681.0,-0.074612952,0.033598663,0.000330923,0.996646331,-250.574966431,-260.661254883,21.951704025,2.0784195980970512,0.0614227025753418
1730699094.7693,393051392.0,1728188683.0,-0.132484134,0.033095977,-0.000120038,0.990632431,-252.600372314,-261.159240723,22.083703995,2.0857274241212425,0.0514836681778546
1730699097.09268,712807936.0,1728188685.0,-0.175465651,0.033968565,-2.326e-05,0.98389935,-254.687286377,-261.883117676,22.203996658,2.2088929692114356,0.0394774165162329
1730699099.30455,931748352.0,1728188687.0,-0.19242471,0.035016019,-0.000870894,0.980686407,-256.539581299,-262.698974609,22.315382004,2.0240106257604693,0.0406373924329067
1730699101.62722,251459840.0,1728188690.0,-0.248714505,0.036664765,-0.00152573,0.967881429,-258.344055176,-263.714813232,22.459997177,2.0707617151072153,0.0474670582480933
1730699104.13626,772933888.0,1728188692.0,-0.302628102,0.034402545,-0.003357868,0.952481717,-260.076171875,-264.82623291,22.576040268,2.058028658595489,0.0684615740769405
1730699106.47771,92729344.0,1728188695.0,-0.375922749,0.033803166,-0.006415954,0.926012002,-261.59072876,-266.217346191,22.697374344,2.056472396721013,0.0561755985358005
1730699108.88472,513339648.0,1728188697.0,-0.410969328,0.034963385,-0.008048205,0.9109429,-263.035369873,-267.895294189,22.821702957,2.2141584020485467,0.0339444300372086
1730699111.4033,34813184.0,1728188700.0,-0.459276965,0.035985629,-0.010128277,0.887506119,-264.465118408,-269.726898193,22.930810928,2.323564955150501,0.0966778463193442
1730699113.72414,354565120.0,1728188702.0,0.564970149,-0.034170827,0.01515602,-0.824264119,-265.318267822,-271.622131348,22.982772827,2.078406272705036,0.0972938787800449
1730699115.93358,573431552.0,1728188704.0,0.52879294,-0.034314007,0.014396845,-0.847934762,-266.018554688,-273.499969482,23.06917572,2.0041651010325237,0.1447859673747462
1730699118.3776,994078976.0,1728188706.0,0.611117494,-0.033473465,0.016619202,-0.790657143,-266.590637207,-275.480377197,23.119194031,2.06138136359504,0.0626233014466365
1730699120.5723,212979968.0,1728188709.0,0.641335866,-0.034505059,0.015700245,-0.766323165,-266.974700928,-277.499908447,23.177232742,2.0557264923902068,0.0345886200470364
1730699122.80058,431874304.0,1728188711.0,0.662371025,-0.03233797,0.018234087,-0.748255554,-267.232849121,-279.593566895,23.235406876,2.1095132581785014,0.0671082282213884
1730699125.11603,751630592.0,1728188713.0,0.635517743,-0.033268583,0.016957269,-0.771182709,-267.371185303,-281.662261963,23.255744934,2.073315263923435,0.049003847628283
1730699127.43652,71353344.0,1728188716.0,0.661756669,-0.033813169,0.017350136,-0.748754784,-267.684143066,-283.824920654,23.299915314,2.1851853869133726,0.0450855909863867
1730699129.56193,189388800.0,1728188718.0,0.694839636,-0.032219101,0.019050976,-0.718190003,-267.778198242,-285.85836792,23.331935883,2.035621320318503,0.0344912444401257
1730699131.77347,408326144.0,1728188720.0,0.674811872,-0.035678515,0.016392048,-0.736944564,-267.787200928,-287.866699219,23.369176865,2.00835147693284,0.0405462642202264
1730699133.99056,627218688.0,1728188722.0,0.653760893,-0.032346098,0.019165521,-0.755766531,-268.031921387,-289.937011719,23.416217804,2.084725869439295,0.2595098388185391
1730699136.32128,946974720.0,1728188724.0,0.699100751,-0.033997619,0.019022103,-0.713961121,-268.151733398,-292.030395508,23.43752861,2.0968096256045694,0.0497551533401625
1730699139.24698,871889920.0,1728188727.0,0.715663603,-0.033788987,0.018833004,-0.697372998,-267.933227539,-294.698181152,23.481407166,2.676719083645084,0.2620549627790299
1730699141.55317,191641088.0,1728188730.0,0.715953513,-0.036417242,0.017347383,-0.696981656,-267.860717773,-296.835449219,23.492301941,2.138497710165527,0.0239879724981616
1730699143.66583,309679872.0,1728188732.0,0.742881695,-0.033703802,0.018936481,-0.668305505,-267.650665283,-298.815979004,23.50538063,1.9916375869688936,0.0433708643323866
1730699145.89844,528595456.0,1728188734.0,0.747825382,-0.032487167,0.020753886,-0.662775296,-267.28314209,-300.784088135,23.512319565,2.002130577389627,0.046028906407217
1730699148.11028,747471360.0,1728188736.0,0.767896564,-0.031973435,0.021241211,-0.63942269,-266.900268555,-302.838439941,23.500034332,2.08972569650154,0.096245769525548
1730699150.46409,67250176.0,1728188739.0,0.76149159,-0.03350537,0.020703,-0.646977054,-266.55178833,-304.804656982,23.512115479,1.9968595142209733,0.0329867972195633
1730699153.15032,790433536.0,1728188741.0,0.71815076,-0.034605182,0.019447612,-0.694754499,-266.242095947,-306.786499023,23.548877716,2.005893129646555,0.0447496616047144
1730699155.77365,412724736.0,1728188744.0,0.792659178,-0.033712509,0.021918124,-0.608337463,-265.789398193,-308.767730713,23.534803391,2.032292859293894,0.5171260487414236
1730699158.09687,732509696.0,1728188746.0,0.724681462,-0.035824806,0.019236122,-0.687883202,-265.368041992,-310.729705811,23.534133911,2.006710575367864,0.1625986274866005
1730699159.9059,547975168.0,1728188748.0,0.782965596,-0.03328354,0.022133088,-0.620779507,-265.217834473,-312.372283936,23.543498993,1.649431779581274,0.1287129444036055
1730699162.13108,766872064.0,1728188750.0,0.775619507,-0.035028941,0.021024351,-0.629877241,-264.557434082,-314.267181396,23.525569916,2.0066801091224145,0.0438586562303401
1730699164.24473,884870400.0,1728188752.0,0.788755111,-0.033379855,0.022250793,-0.613397116,-264.061218262,-316.214416504,23.540864944,2.0094662738762032,0.0252488176055808
1730699166.56851,204660992.0,1728188755.0,0.795324716,-0.034024939,0.023939567,-0.604754342,-263.376342773,-318.231689453,23.522764206,2.1303625480655306,0.0302952824553986
1730699168.79689,423566080.0,1728188757.0,0.79523341,-0.033121636,0.022504656,-0.604979603,-262.753509521,-320.197052002,23.518119812,2.0616913466396234,0.0480073302924058
1730699171.24462,844140288.0,1728188759.0,0.82174275,-0.030862155,0.025076156,-0.568469491,-261.908996582,-322.233551025,23.482250214,2.2046610566747717,0.0939195365701488
1730699173.42706,63074048.0,1728188762.0,0.779179438,-0.034516395,0.022229672,-0.62545492,-261.37979126,-324.172943115,23.485151291,2.010298473259067,0.0991943380515959
1730699175.64365,281933824.0,1728188764.0,0.811764958,-0.030886384,0.02594745,-0.582589349,-260.782806396,-326.180297852,23.485048294,2.0942454412034586,0.4392226889076218
1730699178.06787,702594816.0,1728188766.0,0.771211445,-0.036163727,0.019331215,-0.635256965,-260.214691162,-328.174163818,23.466060638,2.073223675698293,0.0714365858204598
1730699180.29636,921448192.0,1728188768.0,0.772988437,-0.037016795,0.021342666,-0.632979529,-259.695709229,-330.121246338,23.484270096,2.0150614349120755,0.0568509942546076
1730699182.61514,241244160.0,1728188771.0,0.722555701,-0.035702573,0.020255368,-0.690092954,-259.400665283,-332.206726074,23.488386154,2.106247055627132,0.0697248732957568
1730699184.85439,460102400.0,1728188773.0,0.677969909,-0.039951064,0.019691708,-0.733738972,-259.418579102,-334.208526611,23.520458221,2.0018806894629577,0.0492264177204135
1730699187.26049,880749568.0,1728188775.0,0.61463467,-0.04395652,0.013751916,-0.787466092,-259.534393311,-336.302337646,23.587949753,2.0970115834906595,0.0939420091104395
1730699189.57806,200471296.0,1728188778.0,0.687785264,-0.033844927,0.015573137,-0.72495748,-259.774597168,-338.293273926,23.646001816,2.0053740708251464,0.1197821156359028
1730699191.90288,520262400.0,1728188780.0,0.810918125,-0.033989091,0.021084513,-0.583790999,-259.449981689,-340.321502686,23.640674591,2.0540416529606915,0.2086310828589727
1730699193.82585,436572160.0,1728188782.0,0.911260606,-0.029675494,0.025871858,-0.409943973,-258.669036865,-341.809692383,23.606472015,1.6806496935380453,0.3532852776323211
1730699194.82525,445171200.0,1728188783.0,0.972269878,-0.027694888,0.025492935,-0.230812329,-258.038421631,-342.281890869,23.588874817,0.7878115152328898,0.4037140158834905
1730699196.05685,655444480.0,1728188784.0,0.997883382,-0.020706278,0.032460105,-0.052405254,-257.086456299,-342.515228271,23.529905319,0.9801450589080994,0.4114756945280786
1730699197.16361,764926208.0,1728188785.0,0.986618551,-0.008341501,0.03646243,0.158697079,-256.145172119,-342.387420654,23.469152451,0.9499214148978568,0.3469225912768763
1730699198.56819,176922112.0,1728188787.0,0.940813472,0.000344651,0.030782002,0.337523827,-255.198242188,-341.821411133,23.403688431,1.103196751303349,0.2283373971170182
1730699200.90282,496706304.0,1728188789.0,0.888112817,0.00253562,0.031908217,0.458509579,-253.860855103,-340.278320313,23.254655838,2.0419925303225614,0.0705209666310766
1730699203.08041,715571712.0,1728188791.0,0.881720205,0.003899963,0.029454269,0.470836176,-252.812332153,-338.573059082,23.138879776,2.0018282250553816,0.0440161683189115
1730699205.30312,934466304.0,1728188793.0,0.888191437,0.000601599,0.030855305,0.458435993,-251.764465332,-336.822723389,23.04631424,2.040024488270301,0.0724023408211637
1730699207.73035,355082752.0,1728188796.0,0.93720619,0.001533307,0.025339733,0.347850651,-250.455734253,-335.126251221,22.949918747,2.1426140235560243,0.1094469408843307
1730699209.94728,574015232.0,1728188798.0,0.947841304,-0.004135084,0.031490591,0.317156263,-248.846740723,-333.835449219,22.812879562,2.062772403332248,0.0693891335146538
1730699212.46791,95453696.0,1728188801.0,0.952491472,-0.004386002,0.031615843,0.30288811,-247.278320313,-332.572570801,22.703905106,2.013654508885483,0.1045684095077889
1730699215.59695,222114048.0,1728188804.0,0.974642361,-0.008872275,0.028280603,0.221796606,-245.3228302,-331.539398193,22.550218582,2.211648077783218,0.203520028780336
1730699219.01294,651310592.0,1728188807.0,0.975728778,-0.006832741,0.029998685,0.21681038,-243.44480896,-330.600341797,22.408054352,2.099712049962972,0.0888667513468667
1730699222.64461,282204160.0,1728188811.0,0.980339885,-0.005864034,0.025294295,0.19560032,-241.635314941,-329.697387695,22.264307022,2.02227463889439,0.0343276362150106
1730699225.99101,610553856.0,1728188814.0,0.98741092,-0.00913547,0.027930693,0.155422312,-239.767028809,-328.89074707,22.133451462,2.0349845623305938,0.0797356298300495
1730699227.49674,123437056.0,1728188816.0,0.969102342,-0.006293951,0.027588572,0.245030414,-238.942016602,-328.504455566,22.07336998,0.9109699598568578,0.3554986288091573
1730699229.29753,938892800.0,1728188817.0,0.993229154,-0.011160727,0.028472056,0.112074012,-237.933105469,-328.02947998,21.976446152,1.115124872643129,0.2204886719529785
1730699230.2106,846623744.0,1728188818.0,0.993532981,-0.010903226,0.027730889,0.109564324,-237.423721313,-327.926727295,21.965332031,0.5196444290652602,1.0539493110207598
1730699232.32778,964701696.0,1728188820.0,0.979838568,-0.010423939,0.023873935,0.198085225,-236.260848999,-327.49810791,21.877702713,1.239349263067308,0.6921183005949506
1730699235.2488,889607168.0,1728188823.0,0.984435927,-0.012059204,0.03271455,0.172250599,-234.389190674,-326.798370361,21.764650345,1.998183555888266,0.0406698056914368
1730699238.09878,713625344.0,1728188826.0,0.990854968,-0.012953713,0.022889361,0.132343168,-232.479675293,-326.181549072,21.610273361,2.006668256797606,0.0599969226403847
1730699240.90279,537671936.0,1728188829.0,0.998814163,-0.016005636,0.028660347,0.035953521,-230.55921936,-325.70010376,21.480430603,1.979883981207432,0.6214700782332554
1730699243.36438,958325248.0,1728188831.0,0.990977217,-0.01276263,0.026300659,0.130803385,-228.614517212,-325.295196533,21.355646133,1.9864078903670628,0.0879973438318744
1730699245.6608,278046720.0,1728188834.0,0.99506822,-0.013871064,0.02658861,0.09455076,-226.621292114,-324.733032227,21.220119476,2.070984065181964,0.0357220248898671
1730699247.97182,597879296.0,1728188836.0,0.996434696,-0.014474921,0.026460464,0.078792351,-224.523254395,-324.302825928,21.075433731,2.1416908577210614,0.0211758349000326
1730699250.20477,816735232.0,1728188838.0,0.995080582,-0.011930703,0.024307204,0.09529635,-222.502838135,-323.873138428,20.947113037,2.0656023846153726,0.0226215555333167
1730699252.41198,35631872.0,1728188841.0,0.992085985,-0.012785984,0.028693588,0.121567203,-220.4949646,-323.382537842,20.834476471,2.0669409927564253,0.0419042789259185
1730699254.61403,254493952.0,1728188843.0,0.989071963,-0.006868395,0.028504354,0.144488653,-218.576599121,-322.732421875,20.705921173,2.0255312590940866,0.0831447088849923
1730699256.83892,473427712.0,1728188845.0,0.992594898,-0.010381494,0.032137096,0.116682577,-216.633239746,-322.144744873,20.549787521,2.0302733606783407,0.0457568691069758
1730699259.05318,692320000.0,1728188847.0,0.980901387,-0.008301757,0.030421794,0.191932412,-214.755737305,-321.427398682,20.4088974,2.009875860271752,0.0443969978384527
1730699261.38887,12039424.0,1728188850.0,0.97805697,-0.0124879,0.025958589,0.206336518,-212.84715271,-320.498565674,20.285615921,2.1225988582446793,0.0384525659722327
1730699263.71904,331798528.0,1728188852.0,0.964870344,-0.010787924,0.026863431,0.261126699,-210.982254028,-319.450531006,20.11615181,2.1392110133072886,0.0494826452203155
1730699265.92237,550693376.0,1728188854.0,0.974201767,-0.009629685,0.027307518,0.223813513,-209.256515503,-318.42678833,19.992740631,2.006544921832744,0.0610046786493495
1730699268.14284,769589504.0,1728188856.0,0.986816263,-0.012456434,0.030854927,0.158387114,-207.390975952,-317.610137939,19.846643448,2.0364566475782815,0.0476238965915913
1730699270.55551,190204672.0,1728188859.0,0.990872398,-0.011334809,0.029016666,0.131154203,-205.283935547,-316.875,19.700864792,2.231601903938007,0.0460268586022389
1730699273.30647,913435392.0,1728188861.0,0.994366768,-0.015887099,0.032118669,0.099753245,-203.146072388,-316.377380371,19.5616436,2.195013481000872,0.1231518421318278
1730699275.23284,829755392.0,1728188863.0,0.989488136,-0.012114455,0.029043329,0.141148623,-202.31427002,-316.006774902,19.497577667,0.9106281310519068,0.5495523447096239
1730699276.31075,939164416.0,1728188864.0,0.997835872,-0.013659456,0.029237945,0.057289433,-201.773849487,-315.869140625,19.442621231,0.557671540150046,0.3554358541732504
1730699277.61311,250368000.0,1728188866.0,0.999241564,-0.016082507,0.027558467,-0.022320118,-201.194946289,-315.856689453,19.403774261,0.5790370837336827,1.1893766388741127
1730699280.28117,872663296.0,1728188868.0,0.995043826,-0.012251521,0.027402406,0.094798656,-200.037643433,-315.756561279,19.347034454,1.161626253032505,0.1085382782349847
1730699283.77623,402765056.0,1728188872.0,0.998640254,-0.015255357,0.028834455,0.040662844,-198.008117676,-315.469787598,19.215755463,2.0496863034232,0.0537957647146226
1730699286.39385,25098240.0,1728188875.0,0.998136132,-0.015278104,0.028377188,0.051822419,-195.969009399,-315.252441406,19.074029922,2.050658902037807,0.0504041547070766
1730699288.71262,344856576.0,1728188877.0,0.995883343,-0.012808317,0.028740144,0.085007822,-193.968887329,-314.818481445,18.929235458,2.046658140152412,0.1150906803880567
1730699291.03079,664608768.0,1728188879.0,0.995395655,-0.011677694,0.029383784,0.090485949,-191.982498169,-314.469696045,18.806686401,2.016777912963826,0.0656555143197175
1730699293.34674,984365568.0,1728188881.0,0.99656269,-0.012116679,0.029754879,0.076358324,-189.930847168,-314.076477051,18.665529251,2.0889932999286036,0.0378418609324302
1730699295.69881,304084224.0,1728188884.0,0.997681523,-0.009645842,0.009010053,0.066763494,-187.939651489,-313.736785889,18.544092178,2.0199629495634928,0.0508406566067131
1730699297.982,623876864.0,1728188886.0,0.995900483,-0.00973203,0.026344004,0.085985325,-185.994766235,-313.32522583,18.42890358,1.9879538056480943,0.047423542919387
1730699301.60791,153941504.0,1728188890.0,0.998857971,-0.01244578,0.020921444,0.041111451,-183.394638062,-313.028717041,18.263998032,2.616979934577727,0.0954998640358881
1730699304.55247,179676416.0,1728188893.0,0.998055087,-0.009212379,0.009753347,0.060877575,-181.397872925,-312.71774292,18.143226624,2.020835450072669,0.0457728475160108
1730699307.16883,802010368.0,1728188895.0,0.992130879,-0.007337362,0.024400902,0.122584982,-179.184814453,-312.19329834,18.025346756,2.2743504386928404,0.043710374798071
1730699309.49545,121803520.0,1728188898.0,0.988549773,-0.005816196,0.02473678,0.148740047,-177.15586853,-311.605651855,17.866033554,2.1123328217379016,0.0201202979337597
1730699312.49682,46708736.0,1728188901.0,0.98743459,-0.001978863,0.021147904,0.156594249,-174.678405762,-310.71685791,17.772226334,2.6320669526998826,0.0239422118712209
1730699314.7288,366430464.0,1728188903.0,0.994302231,-0.008175069,0.018496391,0.10466197,-172.711837769,-310.096557617,17.643712997,2.0620771383699497,0.0713146184838102
1730699316.94865,585328640.0,1728188905.0,0.981037902,-0.009832951,0.020205793,0.19250895,-170.787567139,-309.434539795,17.522445679,2.034965614973923,0.066368506602028
1730699319.07656,703366144.0,1728188907.0,0.962561104,-0.004356741,0.022658867,0.270080946,-168.992919922,-308.496368408,17.460166931,2.025073871460318,0.0466876137221053
1730699321.69296,325729280.0,1728188910.0,0.957035423,-0.002102759,0.021279178,0.289181472,-167.309371948,-307.526580811,17.364934921,1.942890054546219,0.5016404075026247
1730699323.19496,838581760.0,1728188911.0,0.976189954,-0.005163293,0.020493111,0.215885527,-166.659210205,-307.044250488,17.311534882,0.8095386541395563,0.2756033464910833
1730699326.02191,662632448.0,1728188914.0,0.966137054,-0.004634791,0.020995976,0.257132001,-165.48890686,-306.583007813,17.256122589,1.2579168194119028,0.0833653153068775
1730699328.55604,184107264.0,1728188917.0,0.96962998,-0.003565642,0.019704897,0.243755389,-163.758132935,-305.562255859,17.169038773,2.0093563474542497,0.0356559051950858
1730699330.77815,403003392.0,1728188919.0,0.955341038,-0.000497331,0.019137115,0.29488476,-162.034072876,-304.41708374,17.061254501,2.0697348306423113,0.0579082110595511
1730699332.88642,521042688.0,1728188921.0,0.928573598,0.004002083,0.022903319,0.370419315,-160.453643799,-303.124664307,16.965639114,2.041593509546704,0.0541538221724452
1730699335.10332,739969024.0,1728188923.0,0.922092962,0.002155119,0.024547616,0.386183064,-159.053359985,-301.688995361,16.858463287,2.0054775197590846,0.0460761273833294
1730699337.73642,362301440.0,1728188926.0,0.900427886,0.007858696,0.018717581,0.434531395,-157.562850952,-299.764678955,16.742488861,2.4340523428750145,0.0330711932996
1730699339.9493,581166080.0,1728188928.0,0.892300686,0.002418189,0.022842327,0.450856838,-156.416305542,-298.117889404,16.670417786,2.006609628820452,0.0163841793358368
1730699342.3668,1813760.0,1728188931.0,0.887741675,0.003532776,0.019831246,0.459901045,-155.158630371,-296.230499268,16.585771561,2.268036234547387,0.02386573526452
1730699344.58481,220709632.0,1728188933.0,0.88723403,0.000167609,0.023331801,0.460729138,-154.128112793,-294.479064941,16.498090744,2.032114337423209,0.0869181803833265
1730699346.80302,439606016.0,1728188935.0,0.929511158,-0.000132207,0.022499061,0.368107038,-152.84336853,-292.962402344,16.404512405,1.9876703082881304,0.1142064953638544
1730699349.02632,658508288.0,1728188937.0,0.906414765,0.000324103,0.027065428,0.421520581,-151.367523193,-291.441223145,16.314617157,2.11945880219808,0.0354197568701706
1730699351.44572,79122432.0,1728188940.0,0.906348051,0.002463608,0.027779124,0.421610516,-150.055374146,-289.86114502,16.185569763,2.05387000626782,0.092211502056282
1730699353.78017,398838784.0,1728188942.0,0.919219938,0.00318154,0.022329541,0.393097885,-148.762527466,-288.320770264,16.09167099,2.0110213641105585,0.0433477534252704
1730699355.98214,617771776.0,1728188944.0,0.902784446,0.006454814,0.020111329,0.429574339,-147.479293823,-286.785919189,16.027202606,2.000614006987735,0.0654216814409062
1730699358.30514,937491456.0,1728188946.0,0.875631352,0.006297888,0.018528986,0.482583374,-146.232971191,-285.083099365,15.952756882,2.1101932271815524,0.2290754672799957
1730699360.51386,156421120.0,1728188949.0,0.896724677,0.002963335,0.019930225,0.442129896,-145.23210144,-283.348480225,15.87353611,2.0026591870113917,0.0728578820522768
1730699363.37016,980476672.0,1728188951.0,0.902080126,0.001952828,0.020763857,0.431064361,-143.976867676,-281.713562012,15.783101082,2.0612058037674656,0.0786222087336223
1730699364.85723,493321472.0,1728188953.0,0.918351544,0.000298346,0.023975293,0.395038636,-143.504638672,-281.089477539,15.751446724,0.7826120761006572,0.2902513474957641
1730699368.48123,124283648.0,1728188957.0,0.934393927,0.002925546,0.024803835,0.355364864,-142.425582886,-279.752105713,15.681132317,1.7184076321637411,0.5088292584331233
1730699368.98913,628582400.0,1728188957.0,0.937524517,0.00233652,0.026891547,0.346870522,-142.225387573,-279.586334229,15.643424034,0.2599198881477318,0.8813278196720208
1730699369.89523,435450624.0,1728188958.0,0.929834747,0.006096985,0.02668617,0.366957767,-141.791152954,-279.387298584,15.626773834,0.4776765561743937,0.2941714791445693
1730699371.71199,351764992.0,1728188960.0,0.92552662,0.004560527,0.02470778,0.377848108,-141.116195679,-278.363311768,15.582475662,1.226424201659955,0.297436072182868
1730699372.92871,562074368.0,1728188961.0,0.899996028,0.004964793,0.012017187,0.435704111,-140.690994263,-277.81817627,15.555438042,0.6913529889630524,0.6983046461816781
1730699374.14062,772383744.0,1728188962.0,0.87513954,0.006019924,0.021006457,0.483376971,-140.119171143,-277.104797363,15.488400459,0.914270827227383,0.7543741810831226
1730699376.65225,293817344.0,1728188965.0,0.908039136,0.002245709,0.021196768,0.418342638,-139.068252563,-275.711212158,15.435297012,1.745425330795911,0.09055845915885
1730699378.97095,613575424.0,1728188967.0,0.946011647,-0.003257508,0.02398905,0.323227283,-137.654907227,-274.290863037,15.328579903,2.003730686574033,0.0541451781081884
1730699381.19091,832480256.0,1728188969.0,0.956676589,-0.003541419,0.023911951,0.290147505,-136.026626587,-273.05947876,15.194659233,2.041471302820987,0.0387460882038164
1730699383.33895,950548224.0,1728188971.0,0.958055361,-0.001591927,0.024577543,0.285522942,-134.388656616,-271.860321045,15.100625992,2.030006121010932,0.0774565034272268
1730699385.63842,270300672.0,1728188974.0,0.990206972,-0.00776303,0.027814549,0.136587849,-132.574508667,-271.052825928,14.973287582,1.9857444812562528,0.1179995290186679
1730699388.06277,690915072.0,1728188976.0,0.998058468,-0.007502364,0.025968577,0.056112983,-130.630523682,-270.546539307,14.838630676,2.0088314425329767,0.095421405687839
1730699390.16142,808955136.0,1728188978.0,0.999019179,-0.008997393,0.024775888,0.035579343,-129.234008789,-270.401245117,14.754362106,1.4040527938858032,0.6101224116896308
1730699391.48742,120118784.0,1728188980.0,0.994698771,-0.0066738,0.023254349,0.099945325,-128.417739868,-270.264007568,14.716961861,0.827725254082538,0.33610527871175
1730699392.78624,431289600.0,1728188981.0,0.998121964,-0.009811967,0.023317253,0.055790166,-127.752433777,-270.083679199,14.663506508,0.6893116242947916,0.3557831607017245
1730699393.20882,834684416.0,1728188981.0,0.999351082,-0.011448891,0.023651369,0.024635493,-127.482376099,-270.028320313,14.646749496,0.2756732770979221,0.7992431932308764
1730699394.07302,641594368.0,1728188982.0,0.998193652,-0.011258797,0.024782872,0.053558332,-127.081733704,-270.102844238,14.623514175,0.4075145936880607,0.74953861294203
1730699394.94603,549287424.0,1728188983.0,0.996761427,-0.010782295,0.023160187,0.076249594,-126.386413574,-269.899017334,14.598449707,0.72457952633057,0.2305184432858738
1730699396.92188,566502912.0,1728188985.0,0.999485681,-0.012849252,0.024856538,0.015666608,-124.820404053,-269.759674072,14.496973991,1.5721966685270157,0.2810128452109416
1730699399.24331,886221824.0,1728188987.0,0.995409787,-0.012557824,0.023914967,0.091813405,-122.819816589,-269.464782715,14.377880096,2.022204518229367,0.0576956400440244
1730699401.60512,206015488.0,1728188990.0,0.997536874,-0.017297826,0.027491981,0.062170295,-120.884849548,-269.071594238,14.24911499,1.9745112378008556,0.0535446459454526
1730699403.68919,324056576.0,1728188992.0,0.999351753,-0.018644336,0.026519988,0.015657065,-118.904953003,-268.829040527,14.138654709,1.9946986317794488,0.0394951080923881
1730699405.91169,542949888.0,1728188994.0,0.999458956,-0.018627102,0.02576327,-0.008429982,-116.856002808,-268.723815918,14.016190529,2.0516503405623863,0.0406872535274321
1730699408.32923,963528704.0,1728188996.0,0.999533761,-0.017469917,0.024965982,0.001932551,-114.610862732,-268.646148682,13.887909889,2.2464830647946497,0.0469642976323685
1730699410.54104,182461952.0,1728188999.0,0.998599599,-0.015868258,0.026006338,0.043251561,-112.508827209,-268.509155273,13.765697479,2.1064948454870045,0.1033092718038356
1730699412.67646,300463616.0,1728189001.0,0.999207734,-0.011049548,0.025356871,0.028615513,-110.539878845,-268.316650391,13.6606493,1.978336621935736,0.0385919875109567
1730699415.00183,620254976.0,1728189003.0,0.99956465,-0.014157784,0.023424102,-0.011015685,-108.454841614,-268.181121826,13.525285721,2.0894373038182112,0.0223731446101775
1730699417.14129,738261760.0,1728189005.0,0.99960089,-0.014312835,0.024346883,0.000640567,-106.47013092,-268.158599854,13.400300026,1.9848384765770568,0.0280390226462746
1730699419.21653,856336640.0,1728189007.0,0.999252412,-0.013706037,0.016979459,0.031913183,-104.486694336,-268.027893066,13.304151535,1.9877386516287496,0.0257018794491311
1730699421.63102,276910592.0,1728189010.0,0.999539478,-0.01761021,0.024711808,0.000175384,-102.238868713,-267.89175415,13.183532715,2.251944456656287,0.017070399049614
1730699423.86213,495848960.0,1728189012.0,0.999361251,-0.019547511,0.028100817,-0.010262104,-100.167068481,-267.85748291,13.073746681,2.0720836660729693,0.023738362933529
1730699426.07891,714743552.0,1728189014.0,0.999450712,-0.015151331,0.024637606,0.016177787,-98.072181702,-267.761962891,12.927206039,2.0970633492717337,0.0516615365835762
1730699428.29148,933602304.0,1728189016.0,0.999557762,-0.015796949,0.024475265,-0.005977452,-96.069351196,-267.730804443,12.836525917,2.003072860543511,0.0246518001938994
1730699430.5324,152495872.0,1728189019.0,0.999316302,-0.013449872,0.027599924,0.020598218,-94.02066803,-267.601959229,12.697227478,2.0527308162110565,0.0140475936559158
1730699432.93942,573150976.0,1728189021.0,0.998763967,-0.013238133,0.024644907,0.041084144,-91.750717163,-267.3878479,12.554096222,2.2800264471712066,0.0294579328172456
1730699435.37421,993762560.0,1728189023.0,0.999381455,-0.013432192,0.025137007,0.020601221,-89.507164001,-267.178955078,12.414318085,2.253256976423974,0.0118412083480177
1730699437.66822,313485568.0,1728189026.0,0.999313633,-0.012978351,0.026924328,-0.021883292,-87.470252991,-267.042663574,12.333071709,2.041465609977754,0.0369850104487658
1730699439.89845,532419840.0,1728189028.0,0.999757961,-0.009792553,0.016456535,0.010832195,-85.439666748,-267.073547363,12.218906403,2.0308210897772008,0.0585925923332398
1730699442.22094,852134144.0,1728189030.0,0.996160318,-0.008815304,0.02175152,0.084343001,-83.275871277,-266.84866333,12.098917007,2.175450222050241,0.0877597354057331
1730699444.43479,71031296.0,1728189033.0,0.981872086,-0.002820104,0.020579638,0.188403086,-81.286262512,-266.202056885,12.032330513,2.092042765452084,0.0851530796524889
1730699446.54334,189107200.0,1728189035.0,0.970194301,0.000214412,0.020132657,0.24149034,-79.473350525,-265.291320801,11.914836884,2.028814946540942,0.3816578315460852
